     3.03           OBSERVATION DATA    M: Mixed            RINEX VERSION / TYPE
RTKCONV demo5 b33c                      20210328 204012 UTC PGM / RUN BY / DATE 
log: C:\data-RADARZ\20200410_unicamp\helicoidal\gnss_logge  COMMENT             
format: u-blox                                              COMMENT             
                                                            MARKER NAME         
                                                            MARKER NUMBER       
                                                            MARKER TYPE         
                                                            OBSERVER / AGENCY   
                                                            REC # / TYPE / VERS 
                                                            ANT # / TYPE        
  4006964.9521 -4306985.9548 -2457933.1629                  APPROX POSITION XYZ 
        0.0000        0.0000        0.0000                  ANTENNA: DELTA H/E/N
G    4 C1C L1C D1C S1C                                      SYS / # / OBS TYPES 
R    4 C1C L1C D1C S1C                                      SYS / # / OBS TYPES 
  2020     4    13    14    40   24.0010000     GPS         TIME OF FIRST OBS   
  2020     4    13    15    13   55.0020000     GPS         TIME OF LAST OBS    
G                                                           SYS / PHASE SHIFT   
R                                                           SYS / PHASE SHIFT   
  0                                                         GLONASS SLOT / FRQ #
 C1C    0.000 C1P    0.000 C2C    0.000 C2P    0.000        GLONASS COD/PHS/BIS 
                                                            END OF HEADER       
> 2020  4 13 14 40 24.0010000  0  9                     
G 8  21493883.475 1 112951116.98611      -299.389          46.000  
G10  23538640.415 1 123696380.88511     -2283.800          43.000  
G32  21059251.853 1 110667115.92011     -2175.208          50.000  
G14  20360270.189 1 106993940.34111      -200.218          46.000  
G27  21398332.496 1 112448999.25711     -2297.628          46.000  
G11  22778107.593 1 119699752.46311      2022.303          40.000  
G 1  25067168.375 1 131728861.618 1      2612.569          39.000  
G22  24046032.570 1 126362741.72411      1334.833          37.000  
G31  23912913.994 1 125663200.04911      2008.646          42.000  
> 2020  4 13 14 40 25.0010000  0  9                     
G 8  21493940.712 1 112951416.604 1      -299.614          46.000  
G10  23539075.170 1 123698664.707 1     -2283.512          43.000  
G32  21059665.912 1 110669291.185 1     -2175.220          50.000  
G14  20360308.082 1 106994140.688 1      -200.418          46.000  
G27  21398769.441 1 112451297.066 1     -2297.968          46.000  
G11  22777722.711 1 119697730.364 1      2022.142          40.000  
G 1  25066671.035 1 131726249.055 1      2612.740          39.000  
G22  24045778.381 1 126361406.778 1      1334.851          37.000  
G31  23912531.642 1 125661191.436 1      2008.949          42.000  
> 2020  4 13 14 40 26.0010000  0  9                     
G 8  21493997.879 1 112951716.609 1      -300.094          46.000  
G10  23539509.410 1 123700948.222 1     -2283.347          43.000  
G32  21060080.294 1 110671466.676 1     -2175.562          51.000  
G14  20360346.359 1 106994341.462 1      -201.039          46.000  
G27  21399206.996 1 112453595.138 1     -2298.073          46.000  
G11  22777337.506 1 119695708.224 1      2022.387          40.000  
G 1  25066173.503 1 131723636.072 1      2613.547          39.000  
G22  24045524.105 1 126360071.623 1      1334.973          37.000  
G31  23912149.343 1 125659182.590 1      2008.991          42.000  
> 2020  4 13 14 40 27.0010000  0 11                     
G 8  21494055.491 1 112952017.286 1      -300.871          46.000  
G10  23539943.658 1 123703231.675 1     -2283.285          43.000  
G32  21060495.068 1 110673642.675 1     -2176.147          51.000  
G14  20360384.523 1 106994542.893 1      -201.692          46.000  
G27  21399644.368 1 112455893.780 1     -2298.796          46.000  
G11  22776952.816 1 119693686.385 1      2021.740          40.000  
G 1  25065676.460 1 131721023.003 1      2613.251          39.000  
R 5  21077774.587 1 112672741.33311       595.581          45.000  
G22  24045269.882 1 126358736.539 1      1335.199          37.000  
R 4  20607043.816 1 110349745.82511     -2378.589          43.000  
G31  23911766.947 1 125657173.794 1      2008.757          42.000  
> 2020  4 13 14 40 28.0010000  0 11                     
G 8  21494112.763 1 112952318.607 1      -301.964          46.000  
G10  23540377.925 1 123705515.063 1     -2283.508          43.000  
G32  21060909.694 1 110675819.147 1     -2176.990          51.000  
G14  20360422.922 1 106994744.972 1      -202.498          46.000  
G27  21400081.715 1 112458192.912 1     -2299.466          46.000  
G11  22776568.178 1 119691664.756 1      2021.190          40.000  
G 1  25065179.050 1 131718409.770 1      2613.260          39.000  
R 5  21077663.429 1 112672146.152 1       594.690          46.000  
G22  24045015.894 2 126357401.515 1      1334.869          36.000  
R 4  20607488.072 1 110352124.609 1     -2379.004          43.000  
G31  23911384.386 1 125655164.993 1      2008.464          41.000  
> 2020  4 13 14 40 29.0010000  0 11                     
G 8  21494170.706 1 112952620.663 1      -302.487          46.000  
G10  23540812.112 1 123707798.503 1     -2283.574          43.000  
G32  21061324.215 1 110677996.223 1     -2177.502          51.000  
G14  20360461.513 1 106994947.848 1      -203.448          46.000  
G27  21400518.755 1 112460492.722 1     -2300.287          46.000  
G11  22776183.401 1 119689643.500 1      2020.844          40.000  
G 1  25064682.024 1 131715796.557 1      2613.012          39.000  
R 5  21077552.009 1 112671551.591 1       594.031          45.000  
G22  24044761.941 2 126356066.680 1      1334.412          36.000  
R 4  20607932.503 1 110354503.812 1     -2379.609          43.000  
G31  23911002.061 1 125653156.333 1      2008.482          41.000  
> 2020  4 13 14 40 30.0010000  0 11                     
G 8  21494228.501 1 112952923.696 1      -303.346          46.000  
G10  23541246.343 1 123710082.199 1     -2283.636          43.000  
G32  21061739.129 1 110680174.097 1     -2178.107          51.000  
G14  20360500.201 1 106995151.676 1      -204.133          46.000  
G27  21400956.302 1 112462793.344 1     -2300.924          46.000  
G11  22775798.423 1 119687622.770 1      2020.566          40.000  
G 1  25064184.850 1 131713183.479 1      2613.482          39.000  
R 5  21077440.589 1 112670957.819 1       593.659          45.000  
G22  24044507.447 2 126354732.214 1      1334.094          36.000  
R 4  20608376.716 1 110356883.588 1     -2379.727          43.000  
G31  23910619.857 1 125651147.989 1      2008.541          41.000  
> 2020  4 13 14 40 31.0010000  0 11                     
G 8  21494286.741 1 112953227.374 1      -303.739          46.000  
G10  23541680.810 1 123712365.824 1     -2283.371          43.000  
G32  21062153.859 1 110682352.469 1     -2178.479          51.000  
G14  20360539.263 1 106995356.174 1      -204.637          46.000  
G27  21401393.988 1 112465094.505 1     -2301.095          46.000  
G11  22775413.681 1 119685602.290 1      2021.033          39.000  
G 1  25063688.007 1 131710570.315 1      2613.331          39.000  
R 5  21077329.327 1 112670364.587 1       593.134          45.000  
G22  24044253.415 2 126353397.807 1      1334.564          36.000  
R 4  20608820.841 1 110359263.637 1     -2379.878          43.000  
G31  23910237.471 1 125649139.687 1      2008.552          41.000  
> 2020  4 13 14 40 32.0010000  0 11                     
G 8  21494344.868 1 112953531.619 1      -304.740          46.000  
G10  23542115.390 1 123714649.297 1     -2283.480          43.000  
G32  21062568.328 1 110684531.205 1     -2178.943          51.000  
G14  20360578.500 1 106995561.223 1      -205.408          46.000  
G27  21401832.024 1 112467396.090 1     -2301.389          46.000  
G11  22775028.659 1 119683581.961 1      2020.187          39.000  
G 1  25063191.025 1 131707956.876 1      2613.355          39.000  
R 5  21077218.300 1 112669771.752 1       592.456          45.000  
G22  24043999.349 2 126352063.360 1      1334.387          36.000  
R 4  20609265.220 1 110361643.830 1     -2380.168          43.000  
G31  23909855.599 1 125647131.286 1      2008.546          41.000  
> 2020  4 13 14 40 33.0010000  0 11                     
G 8  21494402.768 1 112953836.765 1      -305.528          46.000  
G10  23542549.587 1 123716932.953 1     -2283.436          43.000  
G32  21062982.945 1 110686710.693 1     -2179.608          51.000  
G14  20360617.771 1 106995767.184 1      -206.296          46.000  
G27  21402270.391 1 112469698.484 1     -2302.599          46.000  
G11  22774643.978 1 119681562.131 1      2019.707          39.000  
G 1  25062693.825 1 131705343.578 1      2613.601          39.000  
R 5  21077107.247 1 112669179.703 1       591.901          45.000  
G22  24043745.475 2 126350729.227 1      1333.875          36.000  
R 4  20609709.511 1 110364024.590 1     -2380.910          43.000  
G31  23909473.701 1 125645123.157 1      2008.296          41.000  
> 2020  4 13 14 40 34.0010000  0 11                     
G 8  21494460.868 1 112954142.846 1      -306.597          46.000  
G10  23542984.088 1 123719216.824 1     -2283.810          43.000  
G32  21063398.034 1 110688890.960 1     -2180.560          51.000  
G14  20360657.209 1 106995974.096 1      -207.385          46.000  
G27  21402708.906 1 112472001.678 1     -2303.639          46.000  
G11  22774259.174 1 119679542.811 1      2019.312          39.000  
G 1  25062197.043 1 131702730.445 1      2612.983          39.000  
R 5  21076996.455 1 112668588.434 1       591.077          45.000  
G22  24043491.696 1 126349395.431 1      1333.954          36.000  
R 4  20610153.820 1 110366405.937 1     -2381.490          43.000  
G31  23909091.724 1 125643115.342 1      2007.793          42.000  
> 2020  4 13 14 40 35.0010000  0 11                     
G 8  21494519.204 1 112954449.675 1      -307.259          46.000  
G10  23543418.564 1 123721500.739 1     -2283.931          43.000  
G32  21063812.546 1 110691071.792 1     -2181.067          51.000  
G14  20360696.917 1 106996181.738 1      -208.018          46.000  
G27  21403147.709 1 112474305.469 1     -2304.045          46.000  
G11  22773874.763 1 119677523.843 1      2018.903          39.000  
G 1  25061699.948 1 131700117.245 1      2613.312          39.000  
R 5  21076885.760 1 112667997.761 1       590.350          45.000  
G22  24043237.734 1 126348061.801 1      1333.417          36.000  
R 4  20610598.696 1 110368787.657 1     -2381.838          43.000  
G31  23908710.045 1 125641107.638 1      2007.542          42.000  
> 2020  4 13 14 40 36.0010000  0 11                     
G 8  21494577.628 1 112954757.304 1      -307.963          46.000  
G10  23543853.170 1 123723784.758 1     -2284.055          43.000  
G32  21064227.207 1 110693253.279 1     -2181.689          50.000  
G14  20360736.677 1 106996390.216 1      -208.733          46.000  
G27  21403586.530 1 112476609.971 1     -2304.675          46.000  
G11  22773490.632 1 119675505.271 1      2018.896          40.000  
G 1  25061202.887 1 131697504.100 1      2613.028          39.000  
R 5  21076775.300 1 112667407.745 1       589.880          45.000  
G22  24042983.729 2 126346728.403 1      1333.191          36.000  
R 4  20611043.659 1 110371169.816 1     -2382.272          43.000  
G31  23908328.068 1 125639100.107 1      2007.348          42.000  
> 2020  4 13 14 40 37.0010000  0 11                     
G 8  21494636.033 1 112955065.704 1      -308.602          46.000  
G10  23544287.803 1 123726068.800 1     -2283.810          43.000  
G32  21064642.164 1 110695435.361 1     -2182.227          50.000  
G14  20360776.420 1 106996599.456 1      -209.499          46.000  
G27  21404025.472 1 112478915.097 1     -2305.208          46.000  
G11  22773106.692 1 119673487.066 1      2018.189          40.000  
G 1  25060705.957 1 131694890.911 1      2613.181          39.000  
R 5  21076664.779 1 112666818.353 1       589.319          45.000  
G22  24042729.532 2 126345395.145 1      1333.539          36.000  
R 4  20611488.316 1 110373552.334 1     -2382.198          43.000  
G31  23907945.961 1 125637092.706 1      2007.576          42.000  
> 2020  4 13 14 40 38.0010000  0 11                     
G 8  21494695.076 1 112955374.875 1      -309.850          46.000  
G10  23544722.627 1 123728352.928 1     -2284.238          43.000  
G32  21065057.392 1 110697618.057 1     -2183.160          50.000  
G14  20360816.494 1 106996809.484 1      -210.556          46.000  
G27  21404464.119 1 112481220.875 1     -2306.093          46.000  
G11  22772723.215 1 119671469.231 1      2017.445          40.000  
G 1  25060208.853 2 131692277.715 1      2612.824          39.000  
R 5  21076554.537 1 112666229.600 1       588.294          45.000  
G22  24042475.683 2 126344062.095 1      1332.935          36.000  
R 4  20611933.375 1 110375935.276 1     -2383.469          43.000  
G31  23907564.010 1 125635085.443 1      2007.059          42.000  
> 2020  4 13 14 40 39.0010000  0 11                     
G 8  21494753.779 1 112955684.923 1      -310.851          46.000  
G10  23545157.024 1 123730637.195 1     -2284.415          42.000  
G32  21065472.611 1 110699801.437 1     -2183.966          50.000  
G14  20360856.455 1 106997020.382 1      -211.449          46.000  
G27  21404903.000 1 112483527.405 1     -2306.937          46.000  
G11  22772339.746 1 119669451.850 1      2016.791          40.000  
G 1  25059711.801 1 131689664.609 1      2612.598          39.000  
R 5  21076444.575 1 112665641.579 1       587.573          45.000  
G22  24042221.896 2 126342729.347 1      1332.257          35.000  
R 4  20612378.522 1 110378318.700 1     -2383.992          43.000  
G31  23907182.077 1 125633078.416 1      2006.785          42.000  
> 2020  4 13 14 40 40.0010000  0 11                     
G 8  21494813.258 1 112955995.835 1      -311.571          46.000  
G10  23545591.482 1 123732921.615 1     -2284.575          42.000  
G32  21065887.883 1 110701985.528 1     -2184.680          50.000  
G14  20360896.574 1 106997232.158 1      -212.445          46.000  
G27  21405341.411 1 112485834.682 1     -2307.789          46.000  
G11  22771956.103 1 119667434.918 1      2016.383          41.000  
G 1  25059214.853 1 131687051.568 1      2612.911          39.000  
R 5  21076334.673 1 112665054.299 1       586.664          45.000  
G22  24041968.571 2 126341396.856 1      1332.166          35.000  
R 4  20612823.738 1 110380702.588 1     -2384.248          43.000  
G31  23906800.171 1 125631071.628 1      2006.447          42.000  
> 2020  4 13 14 40 41.0010000  0 11                     
G 8  21494872.213 1 112956307.257 1      -311.494          46.000  
G10  23546026.307 1 123735205.831 1     -2283.656          42.000  
G32  21066303.416 1 110704169.953 1     -2184.381          50.000  
G14  20360936.866 1 106997444.447 1      -212.432          46.000  
G27  21405780.406 1 112488142.347 1     -2307.693          46.000  
G11  22771572.504 1 119665418.076 1      2017.179          41.000  
G 1  25058717.208 1 131684438.268 1      2613.593          39.000  
R 5  21076224.807 1 112664467.357 1       586.987          45.000  
G22  24041715.089 2 126340064.279 1      1332.471          35.000  
R 4  20613268.902 1 110383086.635 1     -2383.831          43.000  
G31  23906417.880 1 125629064.718 1      2007.086          42.000  
> 2020  4 13 14 40 42.0010000  0 12                     
G 8  21494931.317 1 112956618.912 1      -312.367          46.000  
G10  23546460.966 1 123737489.609 1     -2284.166          42.000  
G32  21066718.871 1 110706354.472 1     -2185.236          50.000  
G14  20360977.412 1 106997656.989 1      -213.304          46.000  
G27  21406219.689 1 112490450.125 1     -2308.406          46.000  
G11  22771188.939 1 119663401.110 1      2016.608          41.000  
G 1  25058219.982 1 131681824.433 1      2613.345          39.000  
R 3  23800351.435 4 127405114.12722     -3773.129          34.000  
R 5  21076115.114 1 112663880.499 1       586.041          45.000  
G22  24041461.686 2 126338731.350 1      1332.397          36.000  
R 4  20613713.926 1 110385470.558 1     -2384.527          42.000  
G31  23906035.624 1 125627057.424 1      2006.568          42.000  
> 2020  4 13 14 40 43.0010000  0 12                     
G 8  21494990.657 1 112956931.943 1      -313.855          46.000  
G10  23546895.982 1 123739774.004 1     -2284.997          43.000  
G32  21067134.815 1 110708540.173 1     -2186.505          50.000  
G14  20361017.975 1 106997870.891 1      -214.682          46.000  
G27  21406659.155 1 112492759.152 1     -2309.860          46.000  
G11  22770805.357 1 119661385.061 1      2015.287          41.000  
G 1  25057722.624 1 131679211.169 1      2612.782          39.000  
R 3  23801056.415 4 127408886.88212     -3774.076          34.000  
R 5  21076005.998 1 112663294.870 1       584.918          45.000  
G22  24041208.605 2 126337399.188 1      1332.031          36.000  
R 4  20614159.386 1 110387855.430 1     -2385.333          42.000  
G31  23905653.744 1 125625050.835 1      2006.516          42.000  
> 2020  4 13 14 40 44.0010000  0 12                     
G 8  21495050.110 1 112957246.207 1      -314.749          46.000  
G10  23547330.850 1 123742058.936 1     -2285.022          43.000  
G32  21067550.592 1 110710726.961 1     -2187.177          50.000  
G14  20361058.904 1 106998086.061 1      -215.782          46.000  
G27  21407099.163 1 112495069.287 1     -2310.547          46.000  
G11  22770422.081 1 119659369.869 1      2014.830          41.000  
G 1  25057225.642 1 131676598.355 1      2612.561          39.000  
R 3  23801761.552 4 127412660.525 2     -3773.757          34.000  
R 5  21075896.577 1 112662710.381 1       583.740          45.000  
G22  24040955.604 1 126336067.705 1      1331.207          36.000  
R 4  20614604.786 1 110390241.223 1     -2386.131          43.000  
G31  23905271.837 1 125623044.875 1      2006.017          42.000  
> 2020  4 13 14 40 45.0010000  0 12                     
G 8  21495109.877 1 112957561.311 1      -315.452          46.000  
G10  23547765.631 1 123744344.007 1     -2285.206          42.000  
G32  21067966.919 1 110712914.448 1     -2188.086          50.000  
G14  20361100.104 1 106998302.083 1      -216.630          46.000  
G27  21407539.144 1 112497380.176 1     -2311.761          47.000  
G11  22770038.472 1 119657355.124 1      2014.232          41.000  
G 1  25056728.189 1 131673985.644 1      2612.430          39.000  
R 3  23802466.706 4 127416434.227 2     -3773.829          34.000  
R 5  21075787.504 1 112662126.576 1       583.344          45.000  
G22  24040702.802 1 126334736.470 1      1330.872          37.000  
R 4  20615050.421 1 110392627.476 1     -2386.461          43.000  
G31  23904890.323 1 125621039.174 1      2005.386          41.000  
> 2020  4 13 14 40 46.0010000  0 12                     
G 8  21495169.914 1 112957877.258 1      -316.313          46.000  
G10  23548200.517 1 123746629.187 1     -2285.009          42.000  
G32  21068383.133 1 110715102.579 1     -2188.391          50.000  
G14  20361141.103 1 106998518.947 1      -217.286          46.000  
G27  21407979.229 1 112499691.731 1     -2311.776          47.000  
G11  22769655.301 1 119655340.794 1      2013.887          41.000  
G 1  25056230.762 1 131671372.954 1      2612.649          39.000  
R 3  23803171.896 4 127420207.912 2     -3773.337          35.000  
R 5  21075678.597 1 112661543.463 1       582.697          45.000  
G22  24040450.141 1 126333405.478 1      1330.902          37.000  
R 4  20615496.056 1 110395014.165 1     -2386.795          43.000  
G31  23904508.782 1 125619033.640 1      2005.521          42.000  
> 2020  4 13 14 40 47.0010000  0 12                     
G 8  21495229.856 1 112958193.848 1      -317.201          46.000  
G10  23548635.237 1 123748914.338 1     -2285.226          42.000  
G32  21068799.548 1 110717291.223 1     -2189.124          50.000  
G14  20361182.679 1 106998736.485 1      -218.018          46.000  
G27  21408419.402 1 112502003.845 1     -2312.564          47.000  
G11  22769272.007 1 119653326.714 1      2014.028          41.000  
G 1  25055733.212 1 131668760.170 1      2612.634          39.000  
R 3  23803876.998 4 127423981.429 2     -3773.233          34.000  
R 5  21075569.621 1 112660960.864 1       582.153          45.000  
G22  24040197.392 1 126332074.579 1      1330.548          37.000  
R 4  20615941.935 1 110397401.147 1     -2387.318          43.000  
G31  23904127.216 1 125617028.155 1      2005.209          42.000  
> 2020  4 13 14 40 48.0010000  0 12                     
G 8  21495290.225 1 112958511.212 1      -317.276          45.000  
G10  23549070.061 1 123751199.555 1     -2284.921          42.000  
G32  21069215.762 1 110719480.492 1     -2189.526          50.000  
G14  20361224.315 1 106998954.828 1      -218.454          46.000  
G27  21408859.575 1 112504316.643 1     -2312.928          47.000  
G11  22768888.826 1 119651313.052 1      2013.560          41.000  
G 1  25055236.064 1 131666147.389 1      2613.011          39.000  
R 3  23804582.022 2 127427755.015 1     -3773.894          34.000  
R 5  21075460.923 1 112660378.939 1       581.836          46.000  
G22  24039944.800 1 126330743.858 1      1330.743          37.000  
R 4  20616387.657 1 110399788.591 1     -2387.420          43.000  
G31  23903745.876 1 125615022.815 1      2005.525          42.000  
> 2020  4 13 14 40 49.0010000  0 12                     
G 8  21495350.707 1 112958829.324 1      -318.428          46.000  
G10  23549505.034 1 123753484.782 1     -2285.002          42.000  
G32  21069632.421 1 110721670.288 1     -2189.868          50.000  
G14  20361266.099 1 106999173.871 1      -219.083          46.000  
G27  21409299.417 1 112506629.995 1     -2313.233          47.000  
G11  22768506.151 1 119649299.671 1      2013.195          40.000  
G 1  25054738.689 1 131663534.535 1      2613.085          39.000  
R 3  23805287.255 4 127431528.432 2     -3773.457          34.000  
R 5  21075352.348 1 112659797.588 1       581.256          46.000  
G22  24039692.086 2 126329413.267 1      1330.743          37.000  
R 4  20616833.894 1 110402176.342 1     -2387.758          43.000  
G31  23903364.441 1 125613017.557 1      2005.482          42.000  
> 2020  4 13 14 40 50.0010000  0 12                     
G 8  21495411.704 1 112959148.037 1      -318.816          46.000  
G10  23549939.588 1 123755769.910 1     -2284.840          42.000  
G32  21070049.219 1 110723860.554 1     -2190.393          50.000  
G14  20361308.085 1 106999393.558 1      -219.921          46.000  
G27  21409740.044 1 112508943.891 1     -2314.224          47.000  
G11  22768122.805 1 119647286.508 1      2013.010          40.000  
G 1  25054241.271 1 131660921.514 1      2613.267          39.000  
R 3  23805992.183 4 127435301.643 2     -3773.344          34.000  
R 5  21075243.694 1 112659216.717 1       580.536          46.000  
G22  24039439.424 1 126328082.714 1      1330.713          37.000  
R 4  20617279.651 1 110404564.326 1     -2388.089          43.000  
G31  23902983.284 1 125611012.290 1      2005.470          42.000  
> 2020  4 13 14 40 51.0010000  0 12                     
G 8  21495472.344 1 112959467.232 1      -318.782          46.000  
G10  23550374.448 1 123758054.782 1     -2284.124          42.000  
G32  21070466.070 1 110726051.122 1     -2190.399          50.000  
G14  20361349.825 1 106999613.720 1      -219.986          46.000  
G27  21410180.627 1 112511258.096 1     -2313.948          47.000  
G11  22767739.834 1 119645273.384 1      2013.927          40.000  
G 1  25053743.992 1 131658308.209 1      2613.347          39.000  
R 3  23806697.163 4 127439074.525 2     -3772.713          34.000  
R 5  21075134.805 1 112658636.132 1       580.811          45.000  
G22  24039186.404 1 126326752.041 1      1331.268          37.000  
R 4  20617725.469 1 110406952.384 1     -2387.695          43.000  
G31  23902602.250 1 125609006.880 1      2005.645          42.000  
> 2020  4 13 14 40 52.0010000  0 12                     
G 8  21495533.324 1 112959786.819 1      -320.318          46.000  
G10  23550809.228 1 123760339.344 1     -2284.828          42.000  
G32  21070882.729 1 110728241.921 1     -2191.711          50.000  
G14  20361391.898 1 106999834.273 1      -221.411          46.000  
G27  21410620.870 1 112513572.596 1     -2315.342          47.000  
G11  22767356.679 1 119643260.300 1      2012.268          40.000  
G 1  25053246.722 1 131655694.474 1      2613.280          39.000  
R 3  23807402.056 4 127442846.960 2     -3773.043          34.000  
R 5  21075026.055 1 112658055.775 1       579.657          45.000  
G22  24038933.202 1 126325421.159 1      1330.249          37.000  
R 4  20618171.366 1 110409340.467 1     -2388.764          43.000  
G31  23902220.867 1 125607001.198 1      2005.222          42.000  
> 2020  4 13 14 40 53.0010000  0 12                     
G 8  21495594.652 1 112960107.745 1      -321.769          46.000  
G10  23551244.079 1 123762624.514 1     -2285.359          42.000  
G32  21071300.086 1 110730433.860 1     -2192.432          50.000  
G14  20361434.302 1 107000056.150 1      -222.501          46.000  
G27  21411061.435 1 112515888.269 1     -2316.279          47.000  
G11  22766973.638 1 119641248.095 1      2012.017          40.000  
G 1  25052749.269 1 131653081.275 1      2612.898          39.000  
R 3  23808107.062 2 127446619.892 1     -3773.069          34.000  
R 5  21074918.012 1 112657476.611 1       578.552          46.000  
G22  24038680.008 1 126324091.008 1      1329.883          37.000  
R 4  20618617.524 1 110411729.502 1     -2389.406          43.000  
G31  23901839.501 1 125604996.218 1      2004.630          42.000  
> 2020  4 13 14 40 54.0010000  0 12                     
G 8  21495655.999 1 112960429.877 1      -322.734          46.000  
G10  23551678.860 1 123764910.211 1     -2286.215          42.000  
G32  21071717.565 1 110732626.879 1     -2193.768          50.000  
G14  20361477.168 1 107000279.269 1      -223.926          46.000  
G27  21411502.306 1 112518205.065 1     -2317.669          47.000  
G11  22766590.920 1 119639236.732 1      2010.696          40.000  
G 1  25052252.086 1 131650468.542 1      2612.260          39.000  
R 3  23808812.129 4 127450393.236 2     -3773.767          34.000  
R 5  21074810.344 1 112656898.563 1       577.496          46.000  
G22  24038426.744 2 126322761.518 1      1328.827          36.000  
R 4  20619063.866 1 110414119.421 1     -2390.517          43.000  
G31  23901458.449 1 125602991.855 1      2003.992          42.000  
> 2020  4 13 14 40 55.0010000  0 12                     
G 8  21495717.842 1 112960753.100 1      -323.488          46.000  
G10  23552114.304 1 123767196.254 1     -2285.994          43.000  
G32  21072135.331 1 110734820.786 1     -2194.000          50.000  
G14  20361520.113 1 107000503.468 1      -224.518          47.000  
G27  21411943.518 1 112520522.794 1     -2317.885          47.000  
G11  22766208.394 1 119637226.023 1      2010.319          40.000  
G 1  25051755.348 1 131647856.096 1      2612.651          39.000  
R 3  23809516.943 4 127454166.864 2     -3773.511          34.000  
R 5  21074702.825 1 112656321.480 1       576.892          46.000  
G22  24038173.629 1 126321432.493 1      1329.266          36.000  
R 4  20619510.347 1 110416510.036 1     -2390.659          43.000  
G31  23901077.372 1 125600987.916 1      2004.187          42.000  
> 2020  4 13 14 40 56.0010000  0 12                     
G 8  21495779.756 1 112961076.920 1      -324.126          46.000  
G10  23552549.635 1 123769482.176 1     -2285.791          43.000  
G32  21072552.898 1 110737015.147 1     -2194.592          50.000  
G14  20361562.832 1 107000728.272 1      -225.062          47.000  
G27  21412384.964 1 112522840.996 1     -2318.179          47.000  
G11  22765825.911 1 119635215.483 1      2010.570          40.000  
G 1  25051258.348 1 131645243.468 1      2612.888          40.000  
R 3  23810221.924 4 127457940.222 2     -3772.806          34.000  
R 5  21074595.148 1 112655744.833 1       576.367          46.000  
G22  24037920.042 2 126320103.510 1      1328.534          35.000  
R 4  20619956.767 1 110418900.891 1     -2391.097          43.000  
G31  23900696.119 1 125598983.968 1      2003.727          42.000  
> 2020  4 13 14 40 57.0010000  0 12                     
G 8  21495841.433 1 112961401.159 1      -324.751          46.000  
G10  23552984.546 1 123771767.822 1     -2285.779          43.000  
G32  21072970.586 1 110739209.760 1     -2195.062          50.000  
G14  20361605.768 1 107000953.505 1      -225.698          47.000  
G27  21412826.420 1 112525159.522 1     -2319.039          47.000  
G11  22765443.089 1 119633205.015 1      2009.884          40.000  
G 1  25050761.122 1 131642630.507 1      2612.529          40.000  
R 3  23810926.869 4 127461713.225 2     -3773.297          34.000  
R 5  21074487.515 1 112655168.451 1       575.983          46.000  
G22  24037666.290 2 126318774.350 1      1328.638          35.000  
R 4  20620403.214 1 110421291.750 1     -2391.181          43.000  
G31  23900314.788 1 125596979.810 1      2003.887          43.000  
> 2020  4 13 14 40 58.0010000  0 12                     
G 8  21495903.321 1 112961726.203 1      -325.228          46.000  
G10  23553419.685 1 123774053.543 1     -2285.417          43.000  
G32  21073388.597 1 110741404.987 1     -2195.380          50.000  
G14  20361648.835 1 107001179.553 1      -226.349          46.000  
G27  21413268.198 1 112527478.707 1     -2319.374          47.000  
G11  22765060.126 1 119631194.916 1      2009.581          40.000  
G 1  25050264.035 1 131640017.505 1      2613.291          40.000  
R 3  23811631.936 2 127465486.166 1     -3772.459          35.000  
R 5  21074379.760 1 112654592.697 1       575.684          46.000  
G22  24037413.035 2 126317445.395 1      1328.821          35.000  
R 4  20620849.826 1 110423683.016 1     -2391.235          43.000  
G31  23899933.519 1 125594975.804 1      2004.249          43.000  
> 2020  4 13 14 40 59.0010000  0 12                     
G 8  21495965.321 1 112962051.595 1      -325.959          46.000  
G10  23553854.649 1 123776338.895 1     -2285.441          43.000  
G32  21073806.591 1 110743600.408 1     -2195.679          50.000  
G14  20361691.946 1 107001405.952 1      -226.898          46.000  
G27  21413709.480 1 112529798.113 1     -2319.790          47.000  
G11  22764677.356 1 119629184.738 1      2009.657          40.000  
G 1  25049766.904 1 131637404.101 1      2613.392          40.000  
R 3  23812336.681 2 127469258.708 1     -3772.719          35.000  
R 5  21074271.892 1 112654017.129 1       575.226          46.000  
G22  24037159.684 2 126316116.175 1      1328.967          35.000  
R 4  20621296.394 1 110426074.256 1     -2391.407          43.000  
G31  23899552.214 1 125592971.523 1      2004.329          42.000  
> 2020  4 13 14 41  0.0010000  0 12                     
G 8  21496027.296 1 112962378.227 1      -327.230          46.000  
G10  23554289.727 1 123778624.809 1     -2286.444          43.000  
G32  21074224.655 1 110745796.929 1     -2197.247          50.000  
G14  20361735.144 1 107001633.623 1      -228.436          46.000  
G27  21414150.909 1 112532118.681 1     -2321.504          47.000  
G11  22764294.812 2 119627175.417 1      2009.186          40.000  
G 1  25049269.748 1 131634791.191 1      2612.459          40.000  
R 3  23813041.582 2 127473031.642 1     -3773.457          35.000  
R 5  21074164.311 1 112653442.718 1       573.669          45.000  
G22  24036906.507 2 126314787.645 1      1327.905          36.000  
R 4  20621743.076 1 110428466.428 1     -2392.764          43.000  
G31  23899171.031 1 125590967.897 1      2002.969          42.000  
> 2020  4 13 14 41  1.0010000  0 12                     
G 8  21496089.986 1 112962705.938 1      -327.964          46.000  
G10  23554724.717 1 123780911.057 1     -2285.889          43.000  
G32  21074642.823 1 110747994.329 1     -2197.540          50.000  
G14  20361778.673 1 107001862.353 1      -228.736          46.000  
G27  21414592.653 1 112534440.146 1     -2321.601          47.000  
G11  22763912.312 1 119625166.758 1      2008.932          40.000  
G 1  25048772.687 1 131632178.530 1      2612.853          40.000  
R 3  23813746.676 2 127476804.798 1     -3772.671          35.000  
R 5  21074057.053 1 112652869.248 1       573.322          45.000  
G22  24036653.610 1 126313459.560 1      1328.241          36.000  
R 4  20622189.977 1 110430859.239 1     -2392.581          43.000  
G31  23898789.953 1 125588964.649 1      2003.672          42.000  
> 2020  4 13 14 41  2.0010000  0 12                     
G 8  21496152.335 1 112963033.632 1      -327.512          46.000  
G10  23555159.751 1 123783196.613 1     -2285.093          43.000  
G32  21075060.721 1 110750191.578 1     -2197.089          50.000  
G14  20361821.836 1 107002091.127 1      -228.877          46.000  
G27  21415034.326 1 112536761.505 1     -2321.168          47.000  
G11  22763529.550 1 119623157.708 1      2009.604          40.000  
G 1  25048275.391 1 131629565.114 1      2613.938          40.000  
R 3  23814451.437 2 127480577.193 1     -3772.059          35.000  
R 5  21073949.647 1 112652295.645 1       573.767          45.000  
G22  24036400.713 2 126312130.927 1      1328.900          36.000  
R 4  20622636.920 1 110433251.700 1     -2392.301          43.000  
G31  23898408.195 1 125586960.818 1      2004.371          42.000  
> 2020  4 13 14 41  3.0010000  0 12                     
G 8  21496214.519 1 112963362.058 1      -329.134          46.000  
G10  23555594.637 1 123785482.161 1     -2285.886          43.000  
G32  21075478.907 1 110752389.377 1     -2198.419          50.000  
G14  20361865.488 1 107002320.604 1      -230.136          46.000  
G27  21415475.948 1 112539083.466 1     -2322.610          47.000  
G11  22763147.320 1 119621148.990 1      2008.169          40.000  
G 1  25047778.321 1 131626951.635 1      2613.132          40.000  
R 3  23815156.252 2 127484349.440 1     -3772.833          35.000  
R 5  21073842.381 1 112651722.600 1       572.430          46.000  
G22  24036148.077 2 126310802.388 1      1328.320          36.000  
R 4  20623083.873 1 110435644.503 1     -2393.307          43.000  
G31  23898026.742 1 125584957.069 1      2003.417          42.000  
> 2020  4 13 14 41  4.0010000  0 12                     
G 8  21496277.157 1 112963691.694 1      -330.715          46.000  
G10  23556029.714 1 123787768.217 1     -2286.697          42.000  
G32  21075897.302 1 110754588.207 1     -2199.695          50.000  
G14  20361909.567 1 107002551.301 1      -231.692          46.000  
G27  21415917.988 1 112541406.510 1     -2323.943          47.000  
G11  22762765.292 1 119619141.061 1      2006.696          40.000  
G 1  25047281.348 1 131624338.578 1      2612.450          40.000  
R 3  23815861.241 2 127488122.107 1     -3773.132          35.000  
R 5  21073735.245 1 112651150.615 1       571.094          45.000  
G22  24035896.227 2 126309474.485 1      1326.984          36.000  
R 4  20623530.877 1 110438038.126 1     -2394.470          43.000  
G31  23897645.525 1 125582953.900 1      2002.643          42.000  
> 2020  4 13 14 41  5.0010000  0 12                     
G 8  21496339.716 1 112964022.381 1      -331.235          46.000  
G10  23556464.443 1 123790054.586 1     -2286.417          42.000  
G32  21076315.828 1 110756787.920 1     -2199.963          50.000  
G14  20361953.664 1 107002783.044 1      -231.995          46.000  
G27  21416360.586 1 112543730.449 1     -2324.134          47.000  
G11  22762383.463 1 119617133.771 1      2006.875          40.000  
G 1  25046783.868 1 131621725.765 1      2612.911          40.000  
R 3  23816566.125 2 127491894.987 1     -3772.891          35.000  
R 5  21073628.275 1 112650579.519 1       570.886          45.000  
G22  24035643.583 2 126308147.006 1      1327.551          37.000  
R 4  20623977.926 1 110440432.404 1     -2394.427          43.000  
G31  23897263.993 1 125580951.124 1      2002.745          42.000  
> 2020  4 13 14 41  6.0010000  0 12                     
G 8  21496402.580 1 112964353.394 1      -331.189          46.000  
G10  23556899.311 1 123792340.606 1     -2285.980          42.000  
G32  21076734.467 1 110758987.801 1     -2199.927          50.000  
G14  20361997.787 1 107003015.146 1      -232.286          46.000  
G27  21416802.941 1 112546054.628 1     -2324.436          47.000  
G11  22762001.347 1 119615126.386 1      2007.418          40.000  
G 1  25046286.607 1 131619112.548 1      2613.175          40.000  
R 3  23817271.175 2 127495667.408 1     -3772.266          35.000  
R 5  21073521.148 1 112650008.637 1       570.685          45.000  
G22  24035391.052 2 126306819.303 1      1327.740          37.000  
R 4  20624425.114 1 110442826.621 1     -2394.124          43.000  
G31  23896882.636 1 125578948.092 1      2003.054          42.000  
> 2020  4 13 14 41  7.0010000  0 12                     
G 8  21496465.148 1 112964684.186 1      -331.159          46.000  
G10  23557333.987 1 123794625.651 1     -2284.820          42.000  
G32  21077152.906 1 110761187.289 1     -2199.713          50.000  
G14  20362041.604 1 107003247.003 1      -231.980          46.000  
G27  21417245.365 1 112548378.435 1     -2323.755          47.000  
G11  22761619.475 1 119613118.395 1      2007.400          40.000  
G 1  25045789.241 1 131616498.290 1      2614.355          40.000  
R 3  23817975.858 2 127499438.704 1     -3771.052          35.000  
R 5  21073414.091 1 112649437.356 1       571.076          45.000  
G22  24035138.565 2 126305490.766 1      1328.882          37.000  
R 4  20624872.293 1 110445220.223 1     -2393.393          43.000  
G31  23896501.104 1 125576944.148 1      2004.552          42.000  
> 2020  4 13 14 41  8.0010000  0 12                     
G 8  21496527.785 1 112965014.996 1      -330.793          46.000  
G10  23557768.340 1 123796910.044 1     -2283.872          42.000  
G32  21077571.545 1 110763386.644 1     -2199.207          50.000  
G14  20362085.762 1 107003478.934 1      -231.986          46.000  
G27  21417687.518 1 112550702.164 1     -2323.639          47.000  
G11  22761237.307 1 119611110.004 1      2008.967          40.000  
G 1  25045291.456 1 131613883.280 1      2615.381          40.000  
R 3  23818680.297 2 127503209.253 1     -3770.158          35.000  
R 5  21073306.877 1 112648865.972 1       571.521          45.000  
G22  24034885.598 2 126304161.677 1      1329.468          37.000  
R 4  20625319.307 1 110447613.511 1     -2393.121          43.000  
G31  23896119.547 1 125574939.676 1      2004.541          42.000  
> 2020  4 13 14 41  9.0010000  0 12                     
G 8  21496590.885 1 112965346.121 1      -331.219          46.000  
G10  23558202.894 1 123799194.033 1     -2283.647          42.000  
G32  21077989.941 1 110765586.158 1     -2199.664          50.000  
G14  20362129.999 1 107003711.174 1      -232.446          46.000  
G27  21418129.751 1 112553026.081 1     -2324.016          47.000  
G11  22760855.042 1 119609101.551 1      2008.607          40.000  
G 1  25044793.810 1 131611267.818 1      2615.665          39.000  
R 3  23819384.754 2 127506979.283 1     -3770.083          36.000  
R 5  21073199.899 1 112648294.743 1       571.143          45.000  
G22  24034632.665 1 126302832.346 1      1329.163          36.000  
R 4  20625766.137 1 110450006.733 1     -2393.091          43.000  
G31  23895737.867 1 125572934.859 1      2004.788          42.000  
> 2020  4 13 14 41 10.0010000  0 12                     
G 8  21496654.064 1 112965677.595 1      -331.749          46.000  
G10  23558637.230 1 123801477.681 1     -2283.775          42.000  
G32  21078408.336 1 110767785.845 1     -2199.884          50.000  
G14  20362174.174 1 107003943.789 1      -232.918          46.000  
G27  21418571.983 1 112555350.246 1     -2324.469          47.000  
G11  22760472.891 1 119607093.069 1      2008.361          40.000  
G 1  25044295.711 1 131608651.970 1      2615.661          39.000  
R 3  23820089.097 2 127510748.819 1     -3769.210          36.000  
R 5  21073092.719 1 112647723.718 1       570.752          45.000  
G22  24034379.428 1 126301502.772 1      1329.779          36.000  
R 4  20626213.273 1 110452399.949 1     -2393.385          43.000  
G31  23895356.309 1 125570929.796 1      2004.783          42.000  
> 2020  4 13 14 41 11.0010000  0 12                     
G 8  21496717.391 1 112966009.650 1      -332.206          46.000  
G10  23559071.811 1 123803761.186 1     -2283.376          42.000  
G32  21078826.757 1 110769985.972 1     -2200.317          50.000  
G14  20362218.506 1 107004176.996 1      -233.584          46.000  
G27  21419014.075 1 112557674.873 1     -2324.809          47.000  
G11  22760091.028 1 119605084.758 1      2008.057          40.000  
G 1  25043797.970 1 131606035.892 1      2615.932          40.000  
R 3  23820793.265 2 127514518.150 1     -3769.536          36.000  
R 5  21072986.142 1 112647153.106 1       570.447          46.000  
G22  24034126.339 2 126300173.213 1      1329.431          36.000  
R 4  20626660.321 1 110454793.325 1     -2393.411          43.000  
G31  23894974.996 1 125568924.661 1      2005.136          42.000  
> 2020  4 13 14 41 12.0010000  0 12                     
G 8  21496780.796 1 112966341.626 1      -331.937          46.000  
G10  23559506.251 1 123806043.889 1     -2282.291          43.000  
G32  21079245.335 1 110772185.828 1     -2199.664          50.000  
G14  20362262.725 1 107004410.099 1      -232.923          46.000  
G27  21419456.063 1 112559999.270 1     -2324.090          47.000  
G11  22759708.519 1 119603075.939 1      2009.031          40.000  
G 1  25043299.705 1 131603418.914 1      2617.694          40.000  
R 3  23821497.417 2 127518286.490 1     -3767.612          36.000  
R 5  21072879.556 1 112646582.255 1       570.953          46.000  
G22  24033872.953 1 126298842.950 1      1330.353          36.000  
R 4  20627107.300 1 110457186.221 1     -2392.613          43.000  
G31  23894593.333 1 125566918.824 1      2006.336          42.000  
> 2020  4 13 14 41 13.0010000  0 12                     
G 8  21496843.922 1 112966673.950 1      -332.867          46.000  
G10  23559940.605 1 123808326.229 1     -2282.652          43.000  
G32  21079663.870 1 110774385.871 1     -2200.525          50.000  
G14  20362307.127 1 107004643.569 1      -233.920          46.000  
G27  21419898.339 1 112562323.915 1     -2325.202          47.000  
G11  22759326.238 1 119601067.069 1      2008.134          40.000  
G 1  25042801.737 1 131600801.546 1      2617.332          40.000  
R 3  23822201.498 2 127522054.471 1     -3768.378          36.000  
R 5  21072772.822 1 112646011.641 1       569.891          46.000  
G22  24033620.038 2 126297512.431 1      1330.536          37.000  
R 4  20627554.235 1 110459579.080 1     -2392.921          43.000  
G31  23894211.566 1 125564912.707 1      2006.237          42.000  
> 2020  4 13 14 41 14.0010000  0 12                     
G 8  21496906.926 1 112967007.552 1      -333.817          46.000  
G10  23560375.115 1 123810609.132 1     -2283.031          43.000  
G32  21080082.684 1 110776587.019 1     -2201.587          50.000  
G14  20362351.677 1 107004878.318 1      -235.288          46.000  
G27  21420340.964 1 112564649.683 1     -2326.103          47.000  
G11  22758944.034 1 119599059.068 1      2007.283          40.000  
G 1  25042303.690 1 131598184.659 1      2616.887          39.000  
R 3  23822905.597 2 127525822.843 1     -3768.321          36.000  
R 5  21072666.419 1 112645442.144 1       568.964          45.000  
G22  24033367.019 2 126296182.599 1      1329.816          37.000  
R 4  20628001.126 1 110461972.846 1     -2394.146          42.000  
G31  23893829.808 1 125562907.247 1      2005.378          42.000  
> 2020  4 13 14 41 15.0010000  0 12                     
G 8  21496970.838 1 112967342.300 1      -335.439          46.000  
G10  23560809.643 1 123812892.454 1     -2283.521          43.000  
G32  21080501.873 1 110778789.118 1     -2202.539          50.000  
G14  20362396.760 1 107005114.207 1      -236.528          46.000  
G27  21420783.632 1 112566976.450 1     -2327.386          47.000  
G11  22758562.171 1 119597051.784 1      2006.933          40.000  
G 1  25041805.609 1 131595568.128 1      2616.103          39.000  
R 3  23823609.774 2 127529591.568 1     -3769.237          36.000  
R 5  21072560.121 1 112644873.644 1       568.097          45.000  
G22  24033114.270 1 126294853.335 1      1328.992          37.000  
R 4  20628448.131 1 110464367.351 1     -2394.881          42.000  
G31  23893448.512 1 125560902.291 1      2004.675          42.000  
> 2020  4 13 14 41 16.0010000  0 12                     
G 8  21497034.592 1 112967678.109 1      -336.232          46.000  
G10  23561244.214 1 123815176.130 1     -2283.805          43.000  
G32  21080921.254 1 110780992.123 1     -2203.497          50.000  
G14  20362441.878 1 107005351.158 1      -237.364          46.000  
G27  21421226.466 1 112569304.164 1     -2328.283          47.000  
G11  22758180.116 1 119595045.178 1      2006.193          40.000  
G 1  25041307.719 1 131592951.871 1      2616.236          39.000  
R 3  23824313.943 2 127533360.509 1     -3769.057          36.000  
R 5  21072453.858 1 112644306.063 1       567.212          45.000  
G22  24032861.669 1 126293524.544 1      1328.357          37.000  
R 4  20628895.118 1 110466762.541 1     -2395.288          42.000  
G31  23893067.364 1 125558897.757 1      2004.214          42.000  
> 2020  4 13 14 41 17.0010000  0 12                     
G 8  21497098.835 1 112968014.779 1      -337.235          46.000  
G10  23561678.812 1 123817459.941 1     -2283.754          43.000  
G32  21081340.705 1 110783195.803 1     -2203.967          50.000  
G14  20362486.917 1 107005588.975 1      -238.277          46.000  
G27  21421669.623 1 112571632.600 1     -2328.949          47.000  
G11  22757798.253 1 119593038.988 1      2005.858          40.000  
G 1  25040809.629 1 131590335.678 1      2616.130          39.000  
R 3  23825017.902 2 127537129.493 1     -3769.305          36.000  
R 5  21072347.979 1 112643739.171 1       566.650          46.000  
G22  24032609.086 1 126292195.981 1      1328.448          37.000  
R 4  20629342.620 1 110469158.201 1     -2395.872          42.000  
G31  23892686.190 1 125556893.455 1      2004.174          43.000  
> 2020  4 13 14 41 18.0010000  0 12                     
G 8  21497163.130 1 112968352.253 1      -338.058          46.000  
G10  23562113.558 1 123819743.839 1     -2283.971          43.000  
G32  21081760.392 1 110785400.117 1     -2204.724          50.000  
G14  20362532.278 1 107005827.607 1      -239.295          46.000  
G27  21422113.138 1 112573961.720 1     -2329.532          47.000  
G11  22757416.643 1 119591033.215 1      2005.500          40.000  
G 1  25040311.617 1 131587719.499 1      2616.607          39.000  
R 3  23825722.018 2 127540898.419 1     -3768.672          36.000  
R 5  21072242.213 1 112643172.978 1       565.643          46.000  
G22  24032356.276 1 126290867.643 1      1328.131          38.000  
R 4  20629789.956 1 110471554.326 1     -2396.594          42.000  
G31  23892304.851 1 125554889.301 1      2004.145          43.000  
> 2020  4 13 14 41 19.0010000  0 12                     
G 8  21497227.687 1 112968690.471 1      -338.631          46.000  
G10  23562548.077 1 123822027.772 1     -2283.807          43.000  
G32  21082180.200 1 110787605.004 1     -2204.968          50.000  
G14  20362577.562 1 107006066.982 1      -239.770          46.000  
G27  21422556.330 1 112576291.455 1     -2329.885          47.000  
G11  22757035.076 1 119589027.780 1      2005.400          40.000  
G 1  25039813.544 1 131585103.311 1      2616.534          39.000  
R 3  23826426.135 2 127544667.323 1     -3768.593          36.000  
R 5  21072136.578 1 112642607.392 1       565.375          46.000  
G22  24032103.780 1 126289539.472 1      1328.192          37.000  
R 4  20630237.554 1 110473950.797 1     -2396.539          42.000  
G31  23891923.511 1 125552885.282 1      2004.305          42.000  
> 2020  4 13 14 41 20.0010000  0 12                     
G 8  21497292.183 1 112969029.412 1      -339.200          46.000  
G10  23562982.841 1 123824311.733 1     -2284.148          43.000  
G32  21082600.306 1 110789810.466 1     -2205.811          50.000  
G14  20362623.360 1 107006307.096 1      -240.526          46.000  
G27  21422999.749 1 112578621.802 1     -2330.751          47.000  
G11  22756653.684 1 119587022.692 1      2004.963          40.000  
G 1  25039315.384 1 131582487.087 1      2615.941          39.000  
R 3  23827130.321 2 127548436.097 1     -3768.901          37.000  
R 5  21072030.900 1 112642042.389 1       564.655          45.000  
G22  24031851.109 1 126288211.430 1      1327.716          37.000  
R 4  20630685.144 1 110476347.601 1     -2396.874          43.000  
G31  23891542.058 1 125550881.377 1      2003.770          42.000  
> 2020  4 13 14 41 21.0010000  0 12                     
G 8  21497356.924 1 112969368.991 1      -339.683          46.000  
G10  23563417.534 1 123826595.588 1     -2283.524          43.000  
G32  21083020.420 1 110792016.378 1     -2205.884          51.000  
G14  20362669.306 1 107006547.851 1      -240.749          46.000  
G27  21423443.551 1 112580952.639 1     -2330.772          47.000  
G11  22756271.908 1 119585017.806 1      2005.006          40.000  
G 1  25038817.687 1 131579870.689 1      2616.483          39.000  
R 3  23827834.114 2 127552204.698 1     -3768.198          36.000  
R 5  21071925.169 1 112641477.845 1       564.587          45.000  
G22  24031598.352 1 126286883.422 1      1328.156          37.000  
R 4  20631133.135 1 110478744.657 1     -2396.893          43.000  
G31  23891160.701 1 125548877.474 1      2004.064          42.000  
> 2020  4 13 14 41 22.0010000  0 12                     
G 8  21497421.830 1 112969708.590 1      -339.906          46.000  
G10  23563852.324 1 123828878.794 1     -2283.280          43.000  
G32  21083440.420 1 110794222.164 1     -2205.988          51.000  
G14  20362715.331 1 107006788.654 1      -241.058          46.000  
G27  21423887.179 1 112583283.397 1     -2331.015          47.000  
G11  22755890.342 1 119583012.554 1      2005.010          40.000  
G 1  25038319.649 1 131577253.554 1      2617.273          39.000  
R 3  23828538.004 2 127555972.477 1     -3767.572          37.000  
R 5  21071819.770 1 112640913.172 1       564.349          45.000  
G22  24031345.873 1 126285554.870 1      1328.772          37.000  
R 4  20631580.645 1 110481141.365 1     -2396.909          43.000  
G31  23890779.169 1 125546872.982 1      2004.634          42.000  
> 2020  4 13 14 41 23.0010000  0 12                     
G 8  21497486.963 1 112970049.330 1      -341.273          46.000  
G10  23564286.922 1 123831162.421 1     -2283.906          43.000  
G32  21083860.578 1 110796428.935 1     -2207.074          51.000  
G14  20362761.400 1 107007030.619 1      -242.426          46.000  
G27  21424330.677 1 112585615.168 1     -2332.097          47.000  
G11  22755508.828 1 119581008.067 1      2004.258          40.000  
G 1  25037821.689 1 131574636.783 1      2616.863          39.000  
R 3  23829241.867 2 127559740.639 1     -3768.058          37.000  
R 5  21071714.423 1 112640349.501 1       563.330          45.000  
G22  24031092.967 1 126284226.890 1      1327.789          36.000  
R 4  20632028.243 1 110483538.857 1     -2397.741          43.000  
G31  23890397.865 1 125544869.020 1      2003.841          42.000  
> 2020  4 13 14 41 24.0010000  0 12                     
G 8  21497552.314 1 112970391.141 1      -342.677          46.000  
G10  23564721.668 1 123833446.404 1     -2284.430          44.000  
G32  21084280.631 1 110798636.603 1     -2208.325          51.000  
G14  20362807.695 1 107007273.663 1      -243.854          46.000  
G27  21424774.523 1 112587947.892 1     -2333.418          46.000  
G11  22755127.305 1 119579004.223 1      2003.258          40.000  
G 1  25037323.451 1 131572020.314 1      2615.678          39.000  
R 3  23829945.852 2 127563509.035 1     -3768.366          36.000  
R 5  21071609.311 1 112639786.780 1       562.140          45.000  
G22  24030839.983 2 126282899.383 1      1327.026          36.000  
R 4  20632476.278 1 110485937.054 1     -2398.879          44.000  
G31  23890016.603 1 125542865.512 1      2002.925          42.000  
> 2020  4 13 14 41 25.0010000  0 12                     
G 8  21497617.551 1 112970733.948 1      -343.425          46.000  
G10  23565156.763 1 123835730.681 1     -2284.524          44.000  
G32  21084701.120 1 110800845.105 1     -2208.936          51.000  
G14  20362853.991 1 107007517.698 1      -244.608          46.000  
G27  21425218.317 1 112590281.503 1     -2334.265          46.000  
G11  22754746.402 1 119577000.971 1      2003.002          41.000  
G 1  25036825.657 1 131569404.056 1      2616.009          39.000  
R 3  23830650.082 2 127567277.675 1     -3768.757          36.000  
R 5  21071504.139 1 112639224.944 1       561.310          45.000  
G22  24030587.129 1 126281572.271 1      1327.148          36.000  
R 4  20632924.077 1 110488335.857 1     -2399.222          43.000  
G31  23889635.273 1 125540862.362 1      2002.985          42.000  
> 2020  4 13 14 41 26.0010000  0 13                     
G 8  21497682.972 1 112971077.741 1      -343.808          46.000  
G10  23565591.535 1 123838015.239 1     -2284.341          44.000  
G32  21085121.635 1 110803054.436 1     -2209.357          51.000  
G14  20362900.583 1 107007762.741 1      -245.242          46.000  
G27  21425662.442 1 112592615.955 1     -2334.414          46.000  
G11  22754365.542 1 119574998.339 1      2002.581          41.000  
G 1  25036327.698 1 131566787.999 1      2616.361          39.000  
R 3  23831354.172 2 127571046.470 1     -3768.948          36.000  
R 5  21071399.219 1 112638663.949 1       561.084          45.000  
G22  24030334.581 2 126280245.584 1      1326.965          37.000  
R 4  20633372.294 1 110490735.275 1     -2399.254          43.000  
G31  23889253.968 1 125538859.584 1      2002.991          42.000  
G16  25533066.992 9               9     -2160.000          31.000  
> 2020  4 13 14 41 27.0010000  0 14                     
G 8  21497748.315 1 112971421.393 1      -343.776          46.000  
G10  23566026.237 1 123840298.894 1     -2283.264          44.000  
G32  21085542.334 1 110805263.415 1     -2209.033          50.000  
G14  20362947.218 1 107008007.600 1      -244.969          46.000  
G27  21426106.385 1 112594950.126 1     -2334.251          46.000  
G11  22753984.333 1 119572995.111 1      2003.523          41.000  
R26  22210148.114 1 118434193.06011      3316.792          43.000  
G 1  25035829.651 1 131564170.976 1      2617.362          39.000  
R 3  23832058.166 2 127574814.180 2     -3766.945          36.000  
R 5  21071294.056 1 112638102.606 1       561.340          45.000  
G22  24030082.094 1 126278918.122 1      1327.667          37.000  
R 4  20633820.451 1 110493134.123 1     -2398.807          43.000  
G31  23888872.689 1 125536855.998 1      2003.548          42.000  
G16  25533467.596 9 134179277.60915     -2159.731          30.000  
> 2020  4 13 14 41 28.0010000  0 14                     
G 8  21497813.762 1 112971765.778 1      -345.054          46.000  
G10  23566460.826 1 123842582.594 1     -2283.941          44.000  
G32  21085962.605 1 110807472.976 1     -2210.229          50.000  
G14  20362994.029 1 107008253.214 1      -246.300          46.000  
G27  21426550.144 1 112597284.900 1     -2335.046          46.000  
G11  22753603.517 1 119570992.215 1      2002.505          41.000  
R26  22209526.057 1 118430876.780 1      3315.872          43.000  
G 1  25035332.006 1 131561553.948 1      2616.711          39.000  
R 3  23832762.125 2 127578581.866 1     -3767.933          36.000  
R 5  21071188.962 1 112637541.835 1       560.144          45.000  
G22  24029829.292 1 126277590.819 1      1326.648          37.000  
R 4  20634268.564 1 110495533.333 1     -2399.555          43.000  
G31  23888491.149 1 125534852.548 1      2002.884          42.000  
G16  25533880.425 9 134181436.923 4     -2159.843          30.000  
> 2020  4 13 14 41 29.0010000  0 14                     
G 8  21497879.540 1 112972111.357 1      -346.143          46.000  
G10  23566895.738 1 123844866.760 1     -2284.442          43.000  
G32  21086383.303 1 110809683.541 1     -2211.072          50.000  
G14  20363040.813 1 107008500.028 1      -247.398          46.000  
G27  21426994.531 1 112599620.749 1     -2336.286          46.000  
G11  22753222.780 1 119568990.128 1      2001.881          41.000  
R26  22208904.498 1 118427561.530 1      3314.547          43.000  
G 1  25034833.985 1 131558937.312 1      2616.399          39.000  
R 3  23833466.120 2 127582349.911 1     -3768.407          37.000  
R 5  21071084.173 1 112636982.114 1       559.143          45.000  
G22  24029576.840 1 126276264.086 1      1326.587          38.000  
R 4  20634716.851 1 110497933.367 1     -2400.338          43.000  
G31  23888109.731 1 125532849.626 1      2002.578          42.000  
G16  25534287.861 9 134183596.469 3     -2159.620          30.000  
> 2020  4 13 14 41 30.0010000  0 14                     
G 8  21497945.511 1 112972457.972 1      -346.922          46.000  
G10  23567330.615 1 123847151.266 1     -2284.874          43.000  
G32  21086804.115 1 110811894.976 1     -2211.652          50.000  
G14  20363088.042 1 107008747.891 1      -248.136          46.000  
G27  21427439.032 1 112601957.506 1     -2337.067          46.000  
G11  22752842.068 1 119566988.668 1      2001.344          41.000  
R26  22208283.078 1 118424247.080 1      3314.534          43.000  
G 1  25034335.842 1 131556320.949 1      2616.231          39.000  
R 3  23834170.245 2 127586118.170 1     -3768.313          37.000  
R 5  21070979.576 1 112636423.306 1       558.386          46.000  
G22  24029324.492 1 126274937.805 1      1326.221          37.000  
R 4  20635164.938 1 110500334.067 1     -2400.582          43.000  
G31  23887728.601 1 125530847.132 1      2002.317          42.000  
G16  25534698.116 8 134185756.102 3     -2158.994          30.000  
> 2020  4 13 14 41 31.0010000  0 13                     
G 8  21498011.298 1 112972805.070 1      -347.118          46.000  
G10  23567765.404 1 123849435.542 1     -2284.201          43.000  
G32  21087224.962 1 110814106.744 1     -2211.774          50.000  
G14  20363135.515 1 107008996.250 1      -248.505          46.000  
G27  21427884.222 1 112604294.624 1     -2337.211          46.000  
G11  22752460.851 1 119564987.283 1      2001.590          41.000  
G 1  25033837.831 1 131553704.302 1      2616.614          39.000  
R 3  23834874.099 2 127589886.107 1     -3768.045          36.000  
R 5  21070875.172 1 112635864.875 1       558.209          45.000  
G22  24029072.014 1 126273611.444 1      1326.654          37.000  
R 4  20635613.129 1 110502734.886 1     -2400.776          43.000  
G31  23887346.982 1 125528844.536 1      2002.500          41.000  
G16  25535106.154 8 134187915.288 3     -2158.235          30.000  
> 2020  4 13 14 41 32.0010000  0 13                     
G 8  21498077.373 1 112973152.560 1      -347.761          46.000  
G10  23568199.880 1 123851719.497 1     -2284.043          43.000  
G32  21087645.504 1 110816318.747 1     -2212.335          50.000  
G14  20363183.250 1 107009245.016 1      -249.148          46.000  
G27  21428329.289 1 112606632.025 1     -2337.810          46.000  
G11  22752080.113 1 119562985.926 1      2001.134          41.000  
G 1  25033339.557 2 131551087.269 1      2616.531          39.000  
R 3  23835577.465 2 127593653.551 1     -3767.249          36.000  
R 5  21070770.462 1 112635306.701 1       557.861          45.000  
G22  24028819.230 1 126272284.907 1      1326.416          37.000  
R 4  20636061.329 1 110505135.723 1     -2401.094          43.000  
G31  23886965.468 1 125526841.661 1      2002.591          41.000  
G16  25535517.334 8 134190073.967 2     -2158.948          31.000  
> 2020  4 13 14 41 33.0010000  0 13                     
G 8  21498143.519 1 112973500.720 1      -348.344          46.000  
G10  23568634.277 1 123854003.415 1     -2283.831          43.000  
G32  21088066.438 1 110818531.243 1     -2212.598          50.000  
G14  20363230.828 1 107009494.472 1      -249.731          46.000  
G27  21428774.017 1 112608969.950 1     -2338.221          46.000  
G11  22751699.105 1 119560984.797 1      2001.125          41.000  
G 1  25032841.493 2 131548470.106 1      2617.214          39.000  
R 3  23836281.154 4 127597420.905 2     -3766.797          36.000  
R 5  21070666.214 1 112634749.068 1       557.416          45.000  
G22  24028566.420 2 126270958.437 1      1326.392          36.000  
R 4  20636509.747 1 110507536.833 1     -2401.125          43.000  
G31  23886584.189 1 125524838.867 1      2003.055          41.000  
G16  25535930.058 4 134192232.290 2     -2158.030          31.000  
> 2020  4 13 14 41 34.0010000  0 13                     
G 8  21498209.760 1 112973849.578 1      -349.330          46.000  
G10  23569068.936 1 123856287.324 1     -2283.978          43.000  
G32  21088487.285 1 110820744.278 1     -2213.464          50.000  
G14  20363278.424 1 107009744.634 1      -250.676          46.000  
G27  21429219.285 1 112611308.461 1     -2338.951          46.000  
G11  22751318.080 1 119558983.988 1      2000.405          41.000  
G 1  25032343.185 1 131545852.873 1      2617.074          39.000  
R 3  23836984.799 2 127601188.150 1     -3767.632          36.000  
R 5  21070562.019 1 112634191.963 1       556.732          45.000  
G22  24028313.837 2 126269632.091 1      1325.824          36.000  
R 4  20636958.340 1 110509938.251 1     -2401.529          43.000  
G31  23886202.597 1 125522836.129 1      2002.859          41.000  
G16  25536339.283 4 134194390.394 2     -2158.371          31.000  
> 2020  4 13 14 41 35.0010000  0 13                     
G 8  21498275.922 1 112974199.214 1      -350.090          46.000  
G10  23569503.664 1 123858571.282 1     -2284.060          43.000  
G32  21088908.428 1 110822957.910 1     -2214.001          50.000  
G14  20363326.298 1 107009995.576 1      -251.491          46.000  
G27  21429664.336 1 112613647.606 1     -2339.525          46.000  
G11  22750937.002 1 119556983.567 1      2000.150          41.000  
G 1  25031844.911 1 131543235.641 1      2617.213          39.000  
R 3  23837688.505 2 127604955.356 1     -3767.417          36.000  
R 5  21070457.579 1 112633635.459 1       556.226          45.000  
G22  24028061.140 2 126268305.926 1      1325.891          36.000  
R 4  20637406.750 1 110512340.080 1     -2402.236          43.000  
G31  23885821.205 1 125520833.542 1      2002.322          41.000  
G16  25536751.003 4 134196548.329 2     -2158.266          31.000  
> 2020  4 13 14 41 36.0010000  0 13                     
G 8  21498342.285 1 112974549.472 1      -350.641          46.000  
G10  23569938.410 1 123860855.137 1     -2283.798          43.000  
G32  21089329.799 1 110825171.971 1     -2214.337          50.000  
G14  20363373.972 1 107010247.133 1      -251.827          46.000  
G27  21430109.883 1 112615987.220 1     -2339.810          46.000  
G11  22750556.238 1 119554983.311 1      2000.345          41.000  
G 1  25031346.908 2 131540618.235 1      2617.220          39.000  
R 3  23838392.368 2 127608722.341 1     -3766.985          36.000  
R 5  21070353.436 1 112633079.404 1       555.805          45.000  
G22  24027808.548 2 126266979.743 1      1326.501          36.000  
R 4  20637855.508 1 110514742.116 1     -2402.188          43.000  
G31  23885440.013 1 125518830.944 1      2002.349          41.000  
G16  25537159.984 4 134198705.859 2     -2157.004          31.000  
> 2020  4 13 14 41 37.0010000  0 13                     
G 8  21498409.041 1 112974900.011 1      -350.461          46.000  
G10  23570372.833 1 123863138.575 1     -2282.830          43.000  
G32  21089751.230 1 110827386.162 1     -2213.702          50.000  
G14  20363421.917 1 107010498.991 1      -251.567          46.000  
G27  21430555.030 1 112618327.021 1     -2339.302          46.000  
G11  22750175.684 1 119552982.966 1      2000.781          41.000  
G 1  25030848.774 1 131538000.300 1      2618.704          39.000  
R 3  23839095.918 2 127612488.794 1     -3765.899          36.000  
R 5  21070249.232 1 112632523.495 1       556.360          45.000  
G22  24027556.314 2 126265653.294 1      1327.020          36.000  
R 4  20638304.380 1 110517144.053 1     -2401.423          43.000  
G31  23885058.447 1 125516828.011 1      2003.523          41.000  
G16  25537572.908 8 134200862.827 2     -2156.931          31.000  
> 2020  4 13 14 41 38.0010000  0 13                     
G 8  21498475.797 1 112975251.059 1      -351.735          46.000  
G10  23570807.248 1 123865421.811 1     -2283.523          43.000  
G32  21090172.705 1 110829600.689 1     -2215.149          50.000  
G14  20363469.852 1 107010751.372 1      -253.041          46.000  
G27  21431000.420 1 112620667.201 1     -2340.836          46.000  
G11  22749795.121 1 119550982.736 1      1999.631          41.000  
G 1  25030350.248 2 131535382.149 1      2617.906          39.000  
R 3  23839799.388 2 127616254.907 1     -3766.564          36.000  
R 5  21070144.994 1 112631967.976 1       554.791          45.000  
G22  24027304.193 1 126264326.734 1      1326.245          36.000  
R 4  20638753.112 1 110519546.088 1     -2402.382          43.000  
G31  23884677.334 1 125514824.940 1      2002.844          41.000  
G16  25537982.823 8 134203019.293 2     -2157.165          30.000  
> 2020  4 13 14 41 39.0010000  0 13                     
G 8  21498543.085 1 112975603.237 1      -352.750          46.000  
G10  23571241.845 1 123867705.458 1     -2283.923          43.000  
G32  21090594.451 1 110831816.166 1     -2215.967          50.000  
G14  20363518.067 1 107011004.873 1      -254.013          46.000  
G27  21431445.680 1 112623008.356 1     -2341.426          46.000  
G11  22749414.994 1 119548983.199 1      1999.363          41.000  
G 1  25029852.070 2 131532764.302 1      2617.583          39.000  
R 3  23840503.182 2 127620021.298 1     -3766.329          36.000  
R 5  21070041.095 1 112631413.432 1       554.230          45.000  
G22  24027052.326 1 126263000.722 1      1325.696          37.000  
R 4  20639201.679 1 110521948.870 1     -2403.161          43.000  
G31  23884296.457 1 125512822.379 1      2002.279          41.000  
G16  25538393.557 8 134205175.918 2     -2156.587          30.000  
> 2020  4 13 14 41 40.0010000  0 13                     
G 8  21498610.233 1 112975956.270 1      -353.734          46.000  
G10  23571676.112 1 123869989.249 1     -2284.263          42.000  
G32  21091016.048 1 110834032.345 1     -2216.772          50.000  
G14  20363566.535 1 107011259.266 1      -255.097          46.000  
G27  21431890.896 1 112625350.271 1     -2342.384          46.000  
G11  22749034.893 1 119546984.147 1      1998.524          41.000  
G 1  25029353.858 1 131530146.557 1      2617.586          39.000  
R 3  23841206.993 2 127623787.773 1     -3766.702          36.000  
R 5  21069937.258 1 112630859.630 1       553.192          45.000  
G22  24026800.126 1 126261674.973 1      1325.616          37.000  
R 4  20639650.403 1 110524352.185 1     -2403.813          42.000  
G31  23883915.554 1 125510820.097 1      2001.827          41.000  
G16  25538805.923 4 134207332.469 3     -2156.414          29.000  
> 2020  4 13 14 41 41.0010000  0 13                     
G 8  21498677.504 1 112976310.158 1      -354.199          46.000  
G10  23572110.674 1 123872273.206 1     -2284.005          42.000  
G32  21091438.160 1 110836249.226 1     -2217.072          50.000  
G14  20363615.126 1 107011514.528 1      -255.656          46.000  
G27  21432336.226 1 112627692.928 1     -2342.907          46.000  
G11  22748654.819 1 119544985.571 1      1998.659          41.000  
G 1  25028855.671 2 131527528.924 1      2617.622          39.000  
R 3  23841910.926 2 127627554.289 1     -3766.752          36.000  
R 5  21069833.551 1 112630306.541 1       552.789          45.000  
G22  24026548.704 1 126260349.543 1      1325.037          38.000  
R 4  20640099.126 1 110526755.993 1     -2403.827          42.000  
G31  23883534.519 1 125508818.050 1      2001.921          41.000  
G16  25539217.705 4 134209488.954 3     -2156.319          29.000  
> 2020  4 13 14 41 42.0010000  0 13                     
G 8  21498744.774 1 112976664.783 1      -354.932          46.000  
G10  23572544.757 1 123874557.195 1     -2283.992          42.000  
G32  21091859.941 1 110838466.702 1     -2217.792          50.000  
G14  20363663.794 1 107011770.553 1      -256.430          46.000  
G27  21432781.835 1 112630036.214 1     -2343.682          46.000  
G11  22748274.474 1 119542987.349 1      1998.069          41.000  
G 1  25028357.415 1 131524911.254 1      2617.400          38.000  
R 3  23842614.675 2 127631320.741 1     -3766.514          35.000  
R 5  21069730.141 1 112629754.026 1       552.203          45.000  
G22  24026296.731 1 126259024.241 1      1325.177          37.000  
R 4  20640547.745 1 110529160.169 1     -2404.470          42.000  
G31  23883153.616 1 125506816.143 1      2001.868          41.000  
G16  25539621.520 4 134211645.300 3     -2156.542          29.000  
> 2020  4 13 14 41 43.0010000  0 13                     
G 8  21498812.298 1 112977020.220 1      -355.984          46.000  
G10  23572979.372 1 123876841.286 1     -2284.417          42.000  
G32  21092282.105 1 110840684.776 1     -2218.616          50.000  
G14  20363712.585 1 107012027.365 1      -257.383          46.000  
G27  21433227.644 1 112632380.141 1     -2344.218          46.000  
G11  22747894.870 1 119540989.506 1      1996.909          41.000  
G 1  25027859.220 1 131522293.588 1      2617.394          39.000  
R 3  23843318.382 2 127635087.197 1     -3766.971          35.000  
R 5  21069626.687 1 112629202.139 1       551.416          45.000  
G22  24026045.038 1 126257699.146 1      1324.957          37.000  
R 4  20640996.608 1 110531564.708 1     -2404.598          42.000  
G31  23882773.027 1 125504814.378 1      2001.920          41.000  
G16  25540032.299 4 134213801.373 2     -2155.995          29.000  
> 2020  4 13 14 41 44.0010000  0 13                     
G 8  21498879.822 1 112977376.526 1      -356.805          46.000  
G10  23573413.726 1 123879125.512 1     -2284.032          42.000  
G32  21092704.558 1 110842903.573 1     -2219.238          50.000  
G14  20363761.472 1 107012285.068 1      -258.136          46.000  
G27  21433673.794 1 112634724.849 1     -2345.186          46.000  
G11  22747514.909 1 119538992.127 1      1997.362          41.000  
G 1  25027361.322 1 131519676.030 1      2617.283          39.000  
R 3  23844022.036 4 127638853.649 2     -3766.421          35.000  
R 5  21069523.583 1 112628651.027 1       550.494          45.000  
G22  24025792.935 1 126256374.352 1      1324.432          37.000  
R 4  20641445.760 1 110533969.761 1     -2405.548          42.000  
G31  23882392.185 1 125502812.889 1      2001.244          41.000  
G16  25540444.010 4 134215957.456 2     -2156.486          29.000  
> 2020  4 13 14 41 45.0010000  0 13                     
G 8  21498948.113 1 112977733.807 1      -357.656          46.000  
G10  23573848.550 1 123881410.031 1     -2284.493          42.000  
G32  21093126.940 1 110845123.153 1     -2220.044          50.000  
G14  20363810.838 1 107012543.747 1      -259.117          46.000  
G27  21434120.388 1 112637070.371 1     -2345.835          46.000  
G11  22747135.062 1 119536995.320 1      1996.606          41.000  
G 1  25026863.206 2 131517058.641 1      2617.783          39.000  
R 3  23844725.768 4 127642620.314 2     -3766.730          34.000  
R 5  21069420.958 1 112628100.735 1       549.963          45.000  
G22  24025540.866 1 126255049.942 1      1324.170          37.000  
R 4  20641894.771 1 110536375.429 1     -2406.214          42.000  
G31  23882011.211 1 125500811.742 1      2000.847          41.000  
G16  25540855.242 4 134218113.399 2     -2155.358          28.000  
> 2020  4 13 14 41 46.0010000  0 13                     
G 8  21499016.248 1 112978091.764 1      -358.533          46.000  
G10  23574283.130 1 123883694.482 1     -2284.803          41.000  
G32  21093548.782 1 110847343.237 1     -2220.502          50.000  
G14  20363859.970 1 107012803.090 1      -259.919          46.000  
G27  21434567.262 1 112639416.449 1     -2346.530          46.000  
G11  22746755.188 1 119534998.778 1      1996.321          41.000  
G 1  25026365.438 1 131514441.174 1      2617.253          39.000  
R 3  23845429.291 4 127646386.776 2     -3766.326          34.000  
R 5  21069318.447 1 112627550.981 1       549.207          46.000  
G22  24025288.615 2 126253725.605 1      1323.987          37.000  
R 4  20642344.027 1 110538781.363 1     -2406.353          42.000  
G31  23881630.578 1 125498810.617 1      2000.642          41.000  
G16  25541265.017 4 134220269.208 3     -2155.563          28.000  
> 2020  4 13 14 41 47.0010000  0 13                     
G 8  21499084.460 1 112978450.199 1      -358.528          46.000  
G10  23574717.458 2 123885978.680 1     -2283.947          41.000  
G32  21093971.365 1 110849563.606 1     -2220.343          50.000  
G14  20363909.345 1 107013062.912 1      -259.896          46.000  
G27  21435014.250 1 112641762.859 1     -2346.337          46.000  
G11  22746375.393 1 119533002.292 1      1996.773          41.000  
G 1  25025867.383 1 131511823.399 1      2617.622          39.000  
R 3  23846132.753 4 127650152.904 2     -3766.203          34.000  
R 5  21069215.770 1 112627001.530 1       549.347          45.000  
G22  24025036.363 2 126252401.143 1      1324.573          36.000  
R 4  20642793.222 1 110541187.375 1     -2405.959          42.000  
G31  23881250.015 1 125496809.359 1      2001.274          41.000  
G16  25541673.247 4 134222424.529 3     -2154.883          28.000  
> 2020  4 13 14 41 48.0010000  0 13                     
G 8  21499152.996 1 112978809.208 1      -359.729          46.000  
G10  23575151.863 1 123888262.749 1     -2283.899          41.000  
G32  21094393.634 1 110851784.401 1     -2221.088          50.000  
G14  20363958.991 1 107013323.324 1      -260.801          46.000  
G27  21435461.106 1 112644109.725 1     -2347.262          46.000  
G11  22745995.449 1 119531006.000 1      1996.269          41.000  
G 1  25025369.659 1 131509205.372 1      2618.181          39.000  
R 3  23846836.075 4 127653918.761 2     -3765.750          33.000  
R 5  21069113.014 1 112626452.486 1       548.706          46.000  
G22  24024783.928 2 126251076.663 1      1324.200          36.000  
R 4  20643242.600 1 110543593.581 1     -2406.282          42.000  
G31  23880869.243 1 125494808.048 1      2000.896          41.000  
G16  25542081.696 4 134224579.436 3     -2154.957          27.000  
> 2020  4 13 14 41 49.0010000  0 13                     
G 8  21499221.602 1 112979169.287 1      -360.208          46.000  
G10  23575586.557 2 123890547.204 1     -2284.144          41.000  
G32  21094816.374 1 110854006.103 1     -2221.753          50.000  
G14  20364009.012 1 107013584.821 1      -261.753          46.000  
G27  21435908.050 1 112646457.530 1     -2347.850          46.000  
G11  22745615.697 1 119529010.393 1      1995.549          42.000  
G 1  25024871.603 2 131506587.677 1      2618.216          39.000  
R 3  23847539.877 4 127657684.880 3     -3765.396          33.000  
R 5  21069010.616 1 112625904.399 1       548.047          46.000  
G22  24024531.616 2 126249752.680 1      1324.066          36.000  
R 4  20643692.222 1 110546000.480 1     -2406.823          42.000  
G31  23880488.671 1 125492807.172 1      2001.163          41.000  
G16  25542488.905 4 134226734.477 3     -2154.954          27.000  
> 2020  4 13 14 41 50.0010000  0 13                     
G 8  21499290.390 1 112979529.944 1      -361.006          46.000  
G10  23576021.408 2 123892831.512 1     -2284.468          41.000  
G32  21095238.853 1 110856228.211 1     -2222.260          50.000  
G14  20364058.998 1 107013846.900 1      -262.465          46.000  
G27  21436354.749 1 112648805.799 1     -2348.569          46.000  
G11  22745235.640 1 119527014.946 1      1995.378          42.000  
G 1  25024373.548 1 131503969.799 1      2617.746          39.000  
R 3  23848241.149 8 127661450.808 3     -3766.565          32.000  
R 5  21068907.983 1 112625356.763 1       547.400          46.000  
G22  24024279.373 1 126248428.676 1      1324.127          36.000  
R 4  20644141.783 1 110548407.584 1     -2407.252          43.000  
G31  23880108.038 1 125490806.269 1      2000.667          41.000  
G16  25542897.240 4 134228889.149 3     -2154.607          27.000  
> 2020  4 13 14 41 51.0010000  0 13                     
G 8  21499359.301 1 112979891.098 1      -361.485          46.000  
G10  23576455.944 2 123895115.632 1     -2284.205          41.000  
G32  21095661.593 1 110858450.653 1     -2222.626          50.000  
G14  20364109.080 1 107014109.494 1      -262.878          46.000  
G27  21436801.562 1 112651154.427 1     -2348.810          46.000  
G11  22744855.863 1 119525019.609 1      1995.235          42.000  
G 1  25023875.091 2 131501351.613 1      2618.632          38.000  
R 3  23848942.430 8 127665216.427 3     -3766.254          31.000  
R 5  21068805.803 1 112624809.512 1       546.838          46.000  
G22  24024027.304 1 126247104.588 1      1324.091          37.000  
R 4  20644591.484 1 110550814.800 1     -2407.391          43.000  
G31  23879727.301 1 125488805.245 1      2001.024          41.000  
G16  25543311.037 4 134231043.265 3     -2153.213          27.000  
> 2020  4 13 14 41 52.0010000  0 13                     
G 8  21499428.169 1 112980252.821 1      -362.157          46.000  
G10  23576890.647 1 123897399.568 1     -2283.973          41.000  
G32  21096084.534 1 110860673.493 1     -2223.102          50.000  
G14  20364159.180 1 107014372.664 1      -263.685          46.000  
G27  21437248.410 1 112653503.504 1     -2349.434          46.000  
G11  22744476.085 1 119523024.432 1      1994.606          41.000  
G 1  25023376.835 2 131498733.248 1      2618.366          38.000  
R 3  23849642.611 8 127668981.741 3     -3766.073          31.000  
R 5  21068703.894 1 112624262.673 1       546.442          46.000  
G22  24023775.472 1 126245780.481 1      1323.962          37.000  
R 4  20645041.202 1 110553222.217 1     -2407.711          43.000  
G31  23879346.615 1 125486804.165 1      2000.913          41.000  
G16  25543722.531 4 134233197.121 3     -2153.145          27.000  
> 2020  4 13 14 41 53.0010000  0 13                     
G 8  21499497.446 1 112980615.166 1      -362.996          46.000  
G10  23577325.009 1 123899683.452 1     -2284.479          41.000  
G32  21096507.536 1 110862896.785 1     -2223.590          50.000  
G14  20364209.288 1 107014636.469 1      -264.416          46.000  
G27  21437694.943 1 112655853.083 1     -2350.091          46.000  
G11  22744096.848 1 119521029.494 1      1994.338          42.000  
G 1  25022878.588 2 131496114.706 1      2618.174          38.000  
R 3  23850342.548 8 127672746.820 3     -3765.467          30.000  
R 5  21068602.159 1 112623716.285 1       546.008          46.000  
G22  24023523.717 1 126244456.411 1      1323.431          37.000  
R 4  20645490.982 1 110555629.862 1     -2408.059          43.000  
G31  23878966.026 1 125484803.074 1      2001.075          41.000  
G16  25544132.463 4 134235350.610 3     -2153.135          27.000  
> 2020  4 13 14 41 54.0010000  0 13                     
G 8  21499566.662 1 112980978.333 1      -363.895          46.000  
G10  23577759.336 1 123901967.384 1     -2284.071          41.000  
G32  21096930.608 1 110865120.721 1     -2224.536          50.000  
G14  20364259.536 1 107014901.086 1      -265.149          46.000  
G27  21438141.704 1 112658203.342 1     -2351.035          46.000  
G11  22743717.341 1 119519034.949 1      1994.040          42.000  
G 1  25022380.367 2 131493496.204 1      2618.285          38.000  
R 3  23851045.643 8 127676511.876 3     -3765.439          30.000  
R 5  21068500.529 1 112623170.546 1       545.312          46.000  
G22  24023271.945 1 126243132.550 1      1323.517          37.000  
R 4  20645940.491 1 110558037.933 1     -2408.575          43.000  
G31  23878585.533 1 125482802.202 1      2000.319          42.000  
G16  25544541.365 4 134237503.972 3     -2153.555          26.000  
> 2020  4 13 14 41 55.0010000  0 13                     
G 8  21499636.071 1 112981342.460 1      -364.533          46.000  
G10  23578193.969 1 123904251.618 1     -2284.490          41.000  
G32  21097353.898 1 110867345.443 1     -2225.024          50.000  
G14  20364310.063 1 107015166.676 1      -266.033          46.000  
G27  21438588.892 1 112660554.431 1     -2351.242          46.000  
G11  22743338.051 1 119517040.982 1      1993.379          42.000  
G 1  25021882.189 2 131490877.907 1      2618.278          38.000  
R 3  23851750.850 8 127680277.124 3     -3765.688          31.000  
R 5  21068398.951 1 112622625.626 1       544.550          46.000  
G22  24023020.261 2 126241809.066 1      1323.566          37.000  
R 4  20646390.479 1 110560446.568 1     -2408.954          43.000  
G31  23878205.092 1 125480801.643 1      2000.544          42.000  
G16  25544951.698 4 134239657.310 4     -2153.363          26.000  
> 2020  4 13 14 41 56.0010000  0 13                     
G 8  21499705.261 1 112981707.573 1      -365.616          46.000  
G10  23578628.732 1 123906536.095 1     -2284.691          41.000  
G32  21097777.327 1 110869570.970 1     -2225.854          50.000  
G14  20364360.747 1 107015433.236 1      -267.107          46.000  
G27  21439036.560 1 112662906.381 1     -2352.460          46.000  
G11  22742958.570 1 119515047.567 1      1993.318          42.000  
G 1  25021383.715 2 131488259.761 1      2618.059          38.000  
R 3  23852453.902 8 127684042.486 4     -3764.431          31.000  
R 5  21068297.295 1 112622081.548 1       543.567          46.000  
G22  24022768.210 1 126240485.973 1      1322.711          37.000  
R 4  20646840.206 1 110562855.809 1     -2409.595          42.000  
G31  23877825.044 1 125478801.440 1      1999.930          42.000  
G16  25545359.388 4 134241810.692 4     -2153.358          25.000  
> 2020  4 13 14 41 57.0010000  0 14                     
G 8  21499774.678 1 112982073.150 1      -365.530          46.000  
G10  23579063.426 1 123908820.334 1     -2284.160          41.000  
G32  21098200.879 1 110871796.808 1     -2225.830          50.000  
G14  20364411.536 1 107015700.284 1      -267.035          46.000  
G27  21439484.481 1 112665258.651 1     -2352.251          46.000  
G11  22742579.211 1 119513054.247 1      1993.549          41.000  
G 1  25020885.127 2 131485641.338 1      2618.769          38.000  
R 3  23853159.292 8 127687807.581 3     -3764.207          30.000  
R 5  21068195.918 1 112621537.812 1       543.793          46.000  
G22  24022516.037 1 126239162.745 1      1323.553          37.000  
R 4  20647290.021 1 110565265.133 1     -2409.242          42.000  
G31  23877445.039 1 125476801.079 1      2000.480          43.000  
G16  25545768.953 4 134243963.593 4     -2152.739          25.000  
R19  19641554.956 2 105069032.370 1       618.195          37.000  
> 2020  4 13 14 41 58.0010000  0 14                     
G 8  21499844.409 1 112982439.365 1      -366.767          46.000  
G10  23579498.067 2 123911104.487 1     -2284.276          41.000  
G32  21098624.317 1 110874023.106 1     -2226.917          50.000  
G14  20364462.473 1 107015967.980 1      -268.453          46.000  
G27  21439932.454 1 112667611.449 1     -2353.465          46.000  
G11  22742199.957 1 119511061.188 1      1992.326          41.000  
G 1  25020386.706 2 131483022.788 1      2618.011          38.000  
R 3  23853864.866 8 127691572.462 3     -3765.684          30.000  
R 5  21068094.471 1 112620994.590 1       542.615          46.000  
G22  24022264.021 1 126237839.590 1      1322.943          37.000  
R 4  20647739.564 1 110567674.731 1     -2409.917          42.000  
G31  23877064.677 1 125474800.746 1      2000.172          43.000  
G16  25546176.791 9               9     -2152.999          24.000  
R19  19641439.610 2 105068415.136 1       616.350          37.000  
> 2020  4 13 14 41 59.0010000  0 14                     
G 8  21499913.965 1 112982806.933 1      -368.075          46.000  
G10  23579933.153 2 123913389.318 1     -2284.952          41.000  
G32  21099048.122 1 110876250.590 1     -2227.826          50.000  
G14  20364513.698 1 107016237.045 1      -269.621          46.000  
G27  21440380.829 1 112669965.466 1     -2354.416          47.000  
G11  22741820.746 1 119509069.044 1      1992.120          41.000  
G 1  25019888.284 2 131480404.809 1      2618.068          38.000  
R 3  23854571.783 4 127695337.872 3     -3765.522          30.000  
R 5  21067993.024 1 112620452.588 1       541.583          46.000  
G22  24022012.267 1 126236517.224 1      1322.272          37.000  
R 4  20648189.588 1 110570085.351 1     -2411.095          42.000  
G31  23876684.707 1 125472801.170 1      1999.291          43.000  
G16  25546587.394 9               9     -2151.873          23.000  
R19  19641324.683 2 105067799.408 1       615.184          37.000  
> 2020  4 13 14 42  0.0010000  0 14                     
G 8  21499984.063 1 112983175.478 1      -369.005          46.000  
G10  23580368.004 2 123915674.388 1     -2285.208          41.000  
G32  21099471.909 1 110878478.889 1     -2228.558          49.000  
G14  20364564.967 1 107016507.102 1      -270.489          46.000  
G27  21440829.273 1 112672320.342 1     -2355.201          47.000  
G11  22741441.597 1 119507077.520 1      1991.223          41.000  
G 1  25019389.949 1 131477787.024 1      2617.786          38.000  
R 3  23855276.902 4 127699103.420 3     -3765.351          29.000  
R 5  21067891.760 1 112619911.390 1       540.900          46.000  
G22  24021760.704 1 126235195.226 1      1321.960          37.000  
R 4  20648639.743 1 110572496.529 1     -2411.526          42.000  
G31  23876304.475 1 125470801.929 1      1999.187          43.000  
G16  25546997.370 9               9     -2153.288          22.000  
R19  19641210.070 2 105067184.793 1       614.236          36.000  
> 2020  4 13 14 42  1.0010000  0 14                     
G 8  21500054.518 1 112983544.892 1      -369.838          46.000  
G10  23580803.186 1 123917959.638 1     -2285.530          41.000  
G32  21099896.115 1 110880707.878 1     -2229.138          49.000  
G14  20364616.245 1 107016778.028 1      -271.238          46.000  
G27  21441277.761 1 112674675.949 1     -2355.911          47.000  
G11  22741062.613 1 119505086.436 1      1991.115          41.000  
G 1  25018891.806 1 131475169.337 1      2617.763          38.000  
R 3  23855980.312 4 127702869.098 3     -3765.890          28.000  
R 5  21067790.619 1 112619370.895 1       540.192          46.000  
G22  24021509.404 2 126233873.520 1      1321.582          37.000  
R 4  20649090.229 1 110574908.183 1     -2411.906          42.000  
G31  23875924.052 1 125468802.943 1      1999.018          42.000  
G16  25547412.353 9               9     -2152.466          22.000  
R19  19641095.614 2 105066571.188 1       613.355          37.000  
> 2020  4 13 14 42  2.0010000  0 14                     
G 8  21500124.720 1 112983914.903 1      -369.892          46.000  
G10  23581238.081 2 123920244.746 1     -2284.788          41.000  
G32  21100320.190 1 110882937.304 1     -2229.114          49.000  
G14  20364667.749 1 107017049.568 1      -271.680          46.000  
G27  21441726.563 1 112677032.038 1     -2356.087          47.000  
G11  22740683.481 1 119503095.574 1      1991.008          41.000  
G 1  25018393.585 2 131472551.462 1      2618.549          38.000  
R 3  23856680.947 4 127706634.463 3     -3765.021          28.000  
R 5  21067689.844 1 112618830.850 1       540.198          46.000  
G22  24021257.806 2 126232551.819 1      1321.875          37.000  
R 4  20649540.628 1 110577320.075 1     -2411.867          42.000  
G31  23875543.541 1 125466803.930 1      1999.304          42.000  
G16  25547822.835 9               9     -2146.788          21.000  
R19  19640981.184 2 105065958.315 1       613.099          37.000  
> 2020  4 13 14 42  3.0010000  0 14                     
G 8  21500195.184 1 112984285.538 1      -370.711          46.000  
G10  23581672.931 2 123922529.786 1     -2284.755          41.000  
G32  21100744.606 1 110885167.196 1     -2230.066          49.000  
G14  20364719.637 1 107017321.750 1      -272.537          46.000  
G27  21442175.226 1 112679388.620 1     -2356.781          47.000  
G11  22740304.383 1 119501104.930 1      1990.479          41.000  
G 1  25017895.111 2 131469933.472 1      2618.079          39.000  
R 3  23857384.121 4 127710399.681 3     -3765.284          27.000  
R 5  21067588.720 1 112618291.310 1       539.435          46.000  
G22  24021006.366 2 126231230.164 1      1321.985          36.000  
R 4  20649991.096 1 110579732.220 1     -2412.206          43.000  
G31  23875162.681 1 125464804.934 1      1998.906          42.000  
G16  25548234.660 9               9     -2155.275          21.000  
R19  19640866.763 2 105065346.246 1       611.813          36.000  
> 2020  4 13 14 42  4.0010000  0 14                     
G 8  21500266.006 1 112984656.903 1      -371.557          46.000  
G10  23582107.590 2 123924814.832 1     -2284.665          41.000  
G32  21101168.925 1 110887397.630 1     -2230.450          49.000  
G14  20364771.455 1 107017594.652 1      -273.210          46.000  
G27  21442623.592 1 112681745.813 1     -2357.474          47.000  
G11  22739925.504 1 119499114.617 1      1990.257          41.000  
G 1  25017397.317 2 131467315.388 1      2618.273          39.000  
R 3  23858084.878 4 127714164.729 3     -3764.351          27.000  
R 5  21067487.666 1 112617752.359 1       538.965          45.000  
G22  24020754.725 1 126229908.628 1      1321.747          36.000  
R 4  20650441.670 1 110582144.682 1     -2412.290          43.000  
G31  23874781.682 1 125462806.020 1      1999.103          41.000  
G16  25548647.157 9               9     -2149.360          22.000  
R19  19640752.604 2 105064735.024 1       610.551          36.000  
> 2020  4 13 14 42  5.0010000  0 14                     
G 8  21500336.836 1 112985028.765 1      -372.333          46.000  
G10  23582542.214 2 123927099.659 1     -2284.931          41.000  
G32  21101593.768 1 110889628.379 1     -2231.134          50.000  
G14  20364823.509 1 107017868.045 1      -273.974          46.000  
G27  21443071.914 1 112684103.342 1     -2358.037          46.000  
G11  22739546.686 1 119497124.380 1      1990.117          41.000  
G 1  25016899.253 2 131464697.050 1      2617.938          39.000  
R 3  23858786.220 4 127717929.517 4     -3764.772          27.000  
R 5  21067386.638 1 112617213.755 1       538.184          45.000  
G22  24020503.372 1 126228587.009 1      1321.381          36.000  
R 4  20650892.173 1 110584557.219 1     -2412.885          43.000  
G31  23874400.770 1 125460806.996 1      1998.781          41.000  
G16  25549057.255 9               9     -2152.695          23.000  
R19  19640638.435 2 105064124.391 1       610.207          37.000  
> 2020  4 13 14 42  6.0010000  0 14                     
G 8  21500407.562 1 112985401.222 1      -372.843          46.000  
G10  23582976.977 2 123929384.345 1     -2284.505          41.000  
G32  21102018.829 1 110891859.534 1     -2231.555          50.000  
G14  20364875.677 1 107018142.026 1      -274.381          46.000  
G27  21443520.515 1 112686461.319 1     -2358.272          46.000  
G11  22739167.912 1 119495134.322 1      1990.060          41.000  
G 1  25016401.224 2 131462078.472 1      2618.735          39.000  
R 3  23859487.675 4 127721694.092 4     -3765.148          26.000  
R 5  21067285.924 1 112616675.582 1       537.958          46.000  
G22  24020251.793 1 126227265.355 1      1321.613          36.000  
R 4  20651342.842 1 110586969.927 1     -2412.929          43.000  
G31  23874019.963 1 125458807.914 1      1999.042          41.000  
G16  25549470.964 9               9     -2151.653          24.000  
R19  19640524.564 2 105063514.479 1       609.430          37.000  
> 2020  4 13 14 42  7.0010000  0 14                     
G 8  21500478.576 1 112985774.016 1      -372.894          46.000  
G10  23583411.924 2 123931668.687 1     -2283.602          41.000  
G32  21102443.829 1 110894090.879 1     -2231.342          50.000  
G14  20364927.722 1 107018416.382 1      -274.411          46.000  
G27  21443968.977 1 112688819.531 1     -2358.069          46.000  
G11  22738789.068 1 119493144.234 1      1990.356          41.000  
G 1  25015902.628 1 131459459.517 1      2619.194          39.000  
R 3  23860188.188 4 127725458.064 4     -3763.751          26.000  
R 5  21067185.411 1 112616137.623 1       538.098          46.000  
G22  24019999.969 2 126225943.467 1      1322.632          37.000  
R 4  20651793.407 1 110589382.658 1     -2412.560          43.000  
G31  23873638.928 1 125456808.580 1      1999.646          41.000  
G16  25549883.871 9               9     -2150.502          25.000  
R19  19640410.649 2 105062905.080 1       609.075          37.000  
> 2020  4 13 14 42  8.0010000  0 14                     
G 8  21500549.581 1 112986147.186 1      -373.598          46.000  
G10  23583846.574 1 123933952.707 1     -2284.065          41.000  
G32  21102868.882 1 110896322.439 1     -2231.964          50.000  
G14  20364979.994 1 107018691.131 1      -275.322          46.000  
G27  21444417.701 1 112691178.010 1     -2359.076          46.000  
G11  22738410.668 1 119491154.149 1      1989.518          41.000  
G 1  25015404.511 1 131456840.127 1      2619.468          39.000  
R 3  23860889.364 4 127729221.642 5     -3762.983          25.000  
R 5  21067085.019 1 112615599.900 1       537.030          46.000  
G22  24019748.101 1 126224621.415 1      1321.851          37.000  
R 4  20652243.666 1 110591795.394 1     -2413.093          42.000  
G31  23873257.868 1 125454809.002 1      1999.525          41.000  
G16  25550292.390 9               9     -2149.864          26.000  
R19  19640296.970 2 105062296.167 1       608.306          37.000  
> 2020  4 13 14 42  9.0010000  0 14                     
G 8  21500620.935 1 112986521.511 1      -374.895          46.000  
G10  23584281.207 2 123936237.155 1     -2284.621          41.000  
G32  21103294.091 1 110898554.972 1     -2232.971          50.000  
G14  20365032.572 1 107018967.041 1      -276.442          46.000  
G27  21444866.678 1 112693537.514 1     -2360.187          46.000  
G11  22738032.156 1 119489164.783 1      1989.229          41.000  
G 1  25014906.377 1 131454221.172 1      2618.438          39.000  
R 3  23861592.564 4 127732986.10025     -3764.347          25.000  
R 5  21066984.663 1 112615063.174 1       536.224          46.000  
G22  24019496.984 1 126223299.899 1      1321.082          37.000  
R 4  20652694.458 1 110594208.886 1     -2413.918          42.000  
G31  23872877.575 1 125452809.965 1      1998.728          41.000  
G16  25550704.005 9               9     -2149.560          26.000  
R19  19640183.456 1 105061688.570 1       606.561          37.000  
> 2020  4 13 14 42 10.0010000  0 14                     
G 8  21500692.332 1 112986896.746 1      -375.947          46.000  
G10  23584715.926 2 123938521.831 1     -2285.139          41.000  
G32  21103719.493 1 110900788.249 1     -2233.783          50.000  
G14  20365085.420 1 107019243.872 1      -277.405          46.000  
G27  21445315.689 1 112695897.772 1     -2360.657          46.000  
G11  22737653.486 1 119487175.964 1      1988.598          41.000  
G 1  25014408.366 2 131451602.316 1      2618.244          39.000  
R 3  23862295.101 8               6     -3762.859          24.000  
R 5  21066884.359 1 112614527.219 1       535.541          46.000  
G22  24019245.823 1 126221978.708 1      1320.837          37.000  
R 4  20653145.310 1 110596622.889 1     -2414.589          42.000  
G31  23872496.934 1 125450811.212 1      1998.391          42.000  
G16  25551113.867 9               9     -2150.008          27.000  
R19  19640070.256 2 105061082.020 1       605.773          37.000  
> 2020  4 13 14 42 11.0010000  0 14                     
G 8  21500763.974 1 112987272.858 1      -376.570          46.000  
G10  23585150.707 2 123940806.625 1     -2284.945          40.000  
G32  21104144.676 1 110903022.226 1     -2234.204          50.000  
G14  20365138.346 1 107019521.571 1      -277.996          46.000  
G27  21445765.050 1 112698258.796 1     -2361.174          46.000  
G11  22737275.244 1 119485187.627 1      1988.239          41.000  
G 1  25013910.223 1 131448983.549 1      2618.410          39.000  
R 3  23862998.903 8               6     -3763.749          23.000  
R 5  21066784.038 1 112613991.998 1       534.839          46.000  
G22  24018994.557 1 126220657.762 1      1321.332          37.000  
R 4  20653595.770 1 110599037.352 1     -2414.388          42.000  
G31  23872116.737 1 125448812.710 1      1998.449          42.000  
G16  25551521.740 9               6     -2150.590          27.000  
R19  19639957.214 2 105060476.482 1       605.109          37.000  
> 2020  4 13 14 42 12.0010000  0 14                     
G 8  21500835.773 1 112987649.701 1      -377.295          46.000  
G10  23585585.192 2 123943091.440 1     -2285.085          40.000  
G32  21104570.383 1 110905256.749 1     -2234.833          50.000  
G14  20365191.334 1 107019799.998 1      -278.779          46.000  
G27  21446214.497 1 112700620.413 1     -2361.978          47.000  
G11  22736896.967 1 119483199.583 1      1987.903          41.000  
G 1  25013412.368 2 131446364.738 1      2618.611          39.000  
R 3  23863703.351 8               9     -3763.532          24.000  
R 5  21066683.830 1 112613457.324 1       534.229          46.000  
G22  24018743.378 1 126219336.993 1      1320.752          37.000  
R 4  20654046.440 1 110601452.185 1     -2415.014          42.000  
G31  23871736.593 1 125446814.325 1      1998.118          42.000  
G16  25551927.737 8 134276302.16934     -2149.520          27.000  
R19  19639844.250 2 105059871.797 1       604.607          37.000  
> 2020  4 13 14 42 13.0010000  0 15                     
G 8  21500907.650 1 112988027.276 1      -378.177          46.000  
G10  23586020.147 2 123945376.277 1     -2284.441          40.000  
G32  21104995.592 1 110907491.841 1     -2235.638          50.000  
G14  20365244.470 1 107020079.187 1      -279.731          46.000  
G27  21446664.155 1 112702982.637 1     -2362.765          47.000  
G11  22736518.576 1 119481211.905 1      1987.244          41.000  
G 1  25012914.243 2 131443745.888 1      2618.416          39.000  
R 3  23864408.087 9               9     -3762.778          24.000  
R 5  21066583.692 1 112612923.249 1       533.661          46.000  
G22  24018492.252 1 126218016.350 1      1320.435          37.000  
R 4  20654497.231 1 110603867.417 1     -2415.624          42.000  
G31  23871356.806 1 125444816.035 1      1997.835          42.000  
R18  20786586.962 9               9     -3167.334          36.000  
G16  25552337.529 8 134278451.29614     -2149.677          27.000  
R19  19639731.251 2 105059268.026 1       603.355          36.000  
> 2020  4 13 14 42 14.0010000  0 15                     
G 8  21500979.720 1 112988405.795 1      -379.293          46.000  
G10  23586454.858 2 123947661.382 1     -2285.222          40.000  
G32  21105420.985 1 110909727.709 1     -2236.536          50.000  
G14  20365297.902 1 107020359.319 1      -280.819          46.000  
G27  21447114.178 1 112705345.666 1     -2363.707          47.000  
G11  22736140.264 1 119479224.768 1      1986.700          41.000  
G 1  25012416.196 2 131441127.200 1      2618.369          39.000  
R 3  23865111.836 9               9     -3764.185          23.000  
R 5  21066483.825 1 112612390.000 1       532.593          46.000  
G22  24018241.091 2 126216696.089 1      1319.794          37.000  
R 4  20654948.241 1 110606283.204 1     -2416.085          42.000  
G31  23870976.898 1 125442818.064 1      1997.741          42.000  
R18  20787181.526 9 110963311.89333     -3168.957          36.000  
G16  25552743.247 4 134280600.988 4     -2149.960          27.000  
R19  19639618.531 2 105058665.339 1       602.212          36.000  
> 2020  4 13 14 42 15.0010000  0 15                     
G 8  21501052.077 1 112988785.266 1      -379.983          46.000  
G10  23586889.735 2 123949946.696 1     -2285.306          40.000  
G32  21105846.456 1 110911964.367 1     -2237.079          50.000  
G14  20365351.422 1 107020640.427 1      -281.754          46.000  
G27  21447564.115 1 112707709.522 1     -2364.269          47.000  
G11  22735762.135 1 119477238.170 1      1986.265          41.000  
G 1  25011917.862 1 131438508.689 1      2618.398          39.000  
R 3  23865817.166 9               9     -3756.945          23.000  
R 5  21066384.009 1 112611857.564 1       531.903          46.000  
G22  24017989.957 1 126215376.173 1      1319.617          37.000  
R 4  20655399.460 1 110608699.550 1     -2416.554          42.000  
G31  23870596.893 1 125440820.450 1      1997.509          42.000  
R18  20787776.395 8 110966481.22122     -3169.849          36.000  
G16  25553150.727 4 134282750.598 4     -2149.611          27.000  
R19  19639506.091 2 105058063.757 1       600.945          36.000  
> 2020  4 13 14 42 16.0010000  0 15                     
G 8  21501124.435 1 112989165.394 1      -380.797          46.000  
G10  23587324.690 2 123952231.956 1     -2285.220          40.000  
G32  21106272.049 1 110914201.490 1     -2237.653          50.000  
G14  20365404.802 1 107020922.169 1      -282.188          46.000  
G27  21448014.112 1 112710073.893 1     -2364.782          47.000  
G11  22735384.286 1 119475251.823 1      1986.119          41.000  
G 1  25011419.553 2 131435890.049 1      2618.772          39.000  
R 3  23866518.403 9               9     -3766.442          22.000  
R 5  21066284.334 1 112611325.620 1       531.525          46.000  
G22  24017738.638 1 126214056.306 1      1319.861          37.000  
R 4  20655850.609 1 110611116.126 1     -2416.854          42.000  
G31  23870216.967 1 125438822.862 1      1997.313          42.000  
R18  20788369.860 8 110969651.19122     -3170.226          36.000  
G16  25553559.489 4 134284899.897 3     -2149.203          27.000  
R19  19639393.493 2 105057462.955 1       600.373          36.000  
> 2020  4 13 14 42 17.0010000  0 15                     
G 8  21501197.071 1 112989545.837 1      -380.645          46.000  
G10  23587759.550 2 123954516.817 1     -2284.507          40.000  
G32  21106697.564 1 110916438.743 1     -2237.262          50.000  
G14  20365458.305 1 107021204.234 1      -282.215          46.000  
G27  21448464.127 1 112712438.430 1     -2364.528          47.000  
G11  22735006.567 1 119473265.397 1      1986.586          41.000  
G 1  25010920.809 1 131433270.942 1      2619.293          39.000  
R 3  23867221.908 9               9     -3762.147          20.000  
R 5  21066184.745 1 112610793.820 1       531.653          46.000  
G22  24017487.294 1 126212736.169 1      1320.404          37.000  
R 4  20656301.828 1 110613532.621 1     -2416.588          42.000  
G31  23869836.971 1 125436824.937 1      1997.997          42.000  
R18  20788962.565 4 110972821.49221     -3170.699          36.000  
G16  25553967.030 4 134287048.597 3     -2148.582          27.000  
R19  19639281.175 2 105056862.548 1       600.276          36.000  
> 2020  4 13 14 42 18.0010000  0 15                     
G 8  21501269.900 1 112989926.852 1      -381.517          47.000  
G10  23588194.374 2 123956801.531 1     -2284.380          40.000  
G32  21107123.289 1 110918676.420 1     -2238.184          50.000  
G14  20365512.278 1 107021486.884 1      -282.999          46.000  
G27  21448914.369 1 112714803.434 1     -2365.299          47.000  
G11  22734628.613 1 119471279.141 1      1986.111          41.000  
G 1  25010422.230 1 131430651.644 1      2619.270          39.000  
R 3  23867924.925 9               9     -3761.178          19.000  
R 5  21066085.323 1 112610262.438 1       530.994          46.000  
G22  24017235.828 1 126211416.031 1      1320.190          37.000  
R 4  20656753.274 1 110615949.325 1     -2416.874          42.000  
G31  23869456.687 1 125434826.991 1      1997.791          42.000  
R18  20789557.905 4 110975992.36222     -3171.480          36.000  
G16  25554377.939 4 134289196.811 3     -2147.662          28.000  
R19  19639169.127 2 105056262.858 1       599.429          36.000  
> 2020  4 13 14 42 19.0010000  0 15                     
G 8  21501342.955 1 112990309.110 1      -383.071          47.000  
G10  23588628.893 2 123959086.795 1     -2285.830          40.000  
G32  21107549.179 1 110920915.138 1     -2239.319          50.000  
G14  20365566.365 1 107021770.774 1      -284.578          46.000  
G27  21449364.489 1 112717169.545 1     -2366.712          47.000  
G11  22734250.824 1 119469293.706 1      1985.051          41.000  
G 1  25009923.695 2 131428032.809 1      2618.630          39.000  
R 3  23868627.383 9               9     -3765.256          18.000  
R 5  21065986.092 1 112609732.186 1       529.584          46.000  
G22  24016984.850 1 126210096.500 1      1319.446          37.000  
R 4  20657204.789 1 110618366.890 1     -2418.096          42.000  
G31  23869077.014 1 125432829.643 1      1997.112          42.000  
R18  20790151.745 4 110979164.48922     -3173.053          37.000  
G16  25554787.592 2 134291345.416 2     -2148.731          29.000  
R19  19639057.297 2 105055664.548 1       597.390          36.000  
> 2020  4 13 14 42 20.0010000  0 15                     
G 8  21501415.714 1 112990692.301 1      -383.428          47.000  
G10  23589063.936 2 123961372.268 1     -2285.465          40.000  
G32  21107975.374 1 110923154.639 1     -2239.703          50.000  
G14  20365620.513 1 107022055.622 1      -285.093          46.000  
G27  21449814.643 1 112719536.468 1     -2367.114          46.000  
G11  22733873.490 1 119467308.846 1      1984.781          41.000  
G 1  25009425.351 2 131425414.128 1      2618.780          39.000  
R 3  23869330.444 9               9     -3762.195          19.000  
R 5  21065887.001 1 112609202.750 1       529.163          46.000  
G22  24016733.899 1 126208777.380 1      1319.177          37.000  
R 4  20657656.296 1 110620785.017 1     -2418.539          42.000  
G31  23868696.913 1 125430832.634 1      1996.965          42.000  
R18  20790746.126 2 110982337.52521     -3173.136          36.000  
G16  25555197.602 2 134293493.932 2     -2147.813          29.000  
R19  19638945.616 2 105055067.302 1       597.291          36.000  
> 2020  4 13 14 42 21.0010000  0 16                     
G 8  21501488.629 1 112991076.311 1      -384.362          47.000  
G10  23589498.586 2 123963657.840 1     -2285.292          39.000  
G32  21108401.691 1 110925394.780 1     -2240.381          50.000  
G14  20365674.871 1 107022341.296 1      -286.133          46.000  
G27  21450265.260 1 112721904.071 1     -2367.886          46.000  
G11  22733495.797 1 119465324.383 1      1984.394          41.000  
G 1  25008926.851 2 131422795.495 1      2618.532          39.000  
R 3  23870035.250 9               9     -3757.667          20.000  
R 5  21065788.180 1 112608673.982 1       528.448          46.000  
G22  24016482.964 1 126207458.448 1      1318.994          37.000  
R 4  20658107.960 1 110623203.550 1     -2418.811          42.000  
G31  23868316.891 1 125428835.812 1      1996.949          42.000  
R18  20791340.183 4 110985510.88912     -3173.955          36.000  
R20  23295941.117 9               6      3690.313          31.000  
G16  25555604.122 2 134295642.404 2     -2148.524          29.000  
R19  19638833.996 2 105054471.052 1       596.228          36.000  
> 2020  4 13 14 42 22.0010000  0 16                     
G 8  21501561.676 1 112991460.936 1      -384.969          46.000  
G10  23589933.646 1 123965943.343 1     -2285.246          39.000  
G32  21108827.826 1 110927635.380 1     -2240.808          50.000  
G14  20365729.254 1 107022627.600 1      -286.530          46.000  
G27  21450715.868 1 112724272.165 1     -2368.312          46.000  
G11  22733118.480 1 119463340.156 1      1984.259          41.000  
G 1  25008428.193 2 131420176.726 1      2618.874          39.000  
R 3  23870739.139 9               9     -3746.369          21.000  
R 5  21065689.805 1 112608145.672 1       528.241          46.000  
G22  24016232.126 1 126206139.569 1      1318.909          37.000  
R 4  20658559.642 1 110625622.333 1     -2418.802          43.000  
G31  23867937.026 1 125426839.010 1      1996.938          42.000  
R18  20791934.407 4 110988685.355 2     -3174.255          36.000  
R20  23295251.703 9 124570143.837 3      3690.390          31.000  
G16  25556009.535 4 134297790.461 2     -2147.354          30.000  
R19  19638722.698 2 105053875.587 1       594.949          36.000  
> 2020  4 13 14 42 23.0010000  0 16                     
G 8  21501634.670 1 112991846.298 1      -385.670          46.000  
G10  23590368.532 1 123968228.885 1     -2286.078          39.000  
G32  21109254.135 1 110929876.540 1     -2241.431          50.000  
G14  20365783.699 1 107022914.652 1      -287.487          46.000  
G27  21451166.599 1 112726640.879 1     -2369.095          47.000  
G11  22732741.075 1 119461356.274 1      1983.790          41.000  
G 1  25007929.745 1 131417557.908 1      2618.396          38.000  
R 3  23871444.599 9               9     -3765.271          20.000  
R 5  21065591.202 1 112607617.941 1       527.319          46.000  
G22  24015981.751 1 126204820.821 1      1318.866          38.000  
R 4  20659011.140 1 110628041.458 1     -2419.084          42.000  
G31  23867556.864 1 125424842.323 1      1996.581          42.000  
R18  20792528.883 4 110991860.586 2     -3176.101          35.000  
R20  23294558.990 8 124566454.223 3      3689.194          31.000  
G16  25556411.317 8 134299938.346 2     -2148.342          30.000  
R19  19638611.375 2 105053280.986 1       593.639          36.000  
> 2020  4 13 14 42 24.0010000  0 16                     
G 8  21501707.865 1 112992232.426 1      -386.855          46.000  
G10  23590803.775 2 123970514.450 1     -2285.989          40.000  
G32  21109680.557 1 110932118.292 1     -2242.297          50.000  
G14  20365838.344 1 107023202.471 1      -288.376          46.000  
G27  21451617.521 1 112729010.208 1     -2369.876          47.000  
G11  22732363.531 1 119459372.750 1      1983.256          41.000  
G 1  25007431.044 2 131414939.042 1      2618.820          39.000  
R 3  23872149.405 9               9     -3754.146          22.000  
R 5  21065492.862 1 112607090.802 1       526.679          46.000  
G22  24015730.895 1 126203502.256 1      1318.213          38.000  
R 4  20659463.040 1 110630460.996 1     -2419.788          42.000  
G31  23867176.781 1 125422845.775 1      1996.021          42.000  
R18  20793123.421 4 110995036.563 2     -3176.948          35.000  
R20  23293866.784 8 124562764.815 3      3688.491          31.000  
G16  25556826.030 8 134302085.978 3     -2147.112          30.000  
R19  19638500.252 2 105052687.259 1       592.776          36.000  
> 2020  4 13 14 42 25.0010000  0 16                     
G 8  21501781.697 1 112992619.386 1      -387.410          46.000  
G10  23591238.539 1 123972800.129 1     -2285.984          39.000  
G32  21110107.136 1 110934360.702 1     -2242.841          50.000  
G14  20365893.269 1 107023491.126 1      -289.170          46.000  
G27  21452068.627 1 112731380.240 1     -2370.515          47.000  
G11  22731986.048 1 119457389.661 1      1982.848          41.000  
G 1  25006932.553 2 131412320.273 1      2618.638          38.000  
R 3  23872854.629 9               9     -3763.134          25.000  
R 5  21065394.329 1 112606564.387 1       526.184          46.000  
G22  24015480.484 1 126202183.930 1      1318.262          38.000  
R 4  20659914.948 1 110632880.989 1     -2420.253          42.000  
G31  23866796.846 1 125420849.444 1      1996.117          42.000  
R18  20793718.482 4 110998213.387 2     -3177.470          36.000  
R20  23293177.971 8 124559075.690 3      3689.319          31.000  
G16  25557232.490 8 134304233.576 3     -2147.547          30.000  
R19  19638389.434 2 105052094.528 1       592.261          36.000  
> 2020  4 13 14 42 26.0010000  0 16                     
G 8  21501855.285 1 112993007.359 1      -388.211          46.000  
G10  23591673.372 1 123975086.127 1     -2286.304          40.000  
G32  21110533.724 1 110936603.943 1     -2243.353          50.000  
G14  20365948.063 1 107023780.820 1      -290.024          46.000  
G27  21452519.985 1 112733751.146 1     -2370.885          47.000  
G11  22731609.053 1 119455407.202 1      1982.264          41.000  
G 1  25006434.052 1 131409701.729 1      2618.504          38.000  
R 3  23873562.096 9               9     -3763.866          26.000  
R 5  21065295.630 1 112606038.871 1       525.549          46.000  
G22  24015230.091 1 126200866.038 1      1318.201          38.000  
R 4  20660367.031 1 110635301.592 1     -2420.547          42.000  
G31  23866417.086 1 125418853.490 1      1996.298          42.000  
R18  20794313.805 4 111001391.211 2     -3178.752          36.000  
R20  23292488.304 8 124555387.082 3      3689.274          31.000  
G16  25557641.531 8 134306381.149 3     -2147.243          30.000  
R19  19638278.739 2 105051502.959 1       591.239          36.000  
> 2020  4 13 14 42 27.0010000  0 16                     
G 8  21501928.977 1 112993395.827 1      -388.575          46.000  
G10  23592108.318 1 123977371.893 1     -2285.774          40.000  
G32  21110960.783 1 110938847.513 1     -2243.658          50.000  
G14  20366003.406 1 107024070.984 1      -290.113          46.000  
G27  21452971.326 1 112736122.443 1     -2371.365          47.000  
G11  22731231.649 1 119453424.822 1      1982.455          41.000  
G 1  25005935.378 2 131407082.877 1      2619.378          38.000  
R 3  23874268.899 9               7     -3763.020          26.000  
R 5  21065197.107 1 112605513.689 1       525.323          45.000  
G22  24014979.619 1 126199548.036 1      1318.018          38.000  
R 4  20660819.201 1 110637722.294 1     -2420.515          42.000  
G31  23866037.151 1 125416857.432 1      1996.345          42.000  
R18  20794909.015 4 111004569.526 2     -3178.864          36.000  
R20  23291800.687 4 124551698.461 2      3689.234          31.000  
G16  25558048.008 8 134308528.311 3     -2147.023          30.000  
R19  19638168.331 2 105050912.029 1       590.797          36.000  
> 2020  4 13 14 42 28.0010000  0 16                     
G 8  21502003.140 1 112993785.196 1      -389.941          46.000  
G10  23592543.536 1 123979657.852 1     -2286.301          40.000  
G32  21111388.087 1 110941091.805 1     -2244.916          50.000  
G14  20366058.994 1 107024362.088 1      -291.874          46.000  
G27  21453422.764 1 112738494.485 1     -2372.575          47.000  
G11  22730854.166 1 119451442.958 1      1981.314          41.000  
G 1  25005436.877 1 131404464.179 1      2618.333          38.000  
R 3  23874974.412 8               6     -3763.396          26.000  
R 5  21065098.600 1 112604989.257 1       523.877          45.000  
G22  24014729.235 1 126198230.337 1      1317.249          38.000  
R 4  20661271.432 1 110640143.533 1     -2421.894          42.000  
G31  23865657.251 1 125414861.672 1      1995.072          42.000  
R18  20795504.782 4 111007748.771 2     -3179.925          36.000  
R20  23291106.456 4 124548010.218 2      3687.970          32.000  
G16  25558458.306 8 134310675.403 3     -2147.875          30.000  
R19  19638058.002 2 105050322.130 1       589.077          36.000  
> 2020  4 13 14 42 29.0010000  0 16                     
G 8  21502077.557 1 112994175.698 1      -391.002          46.000  
G10  23592978.762 1 123981944.209 1     -2286.333          40.000  
G32  21111815.390 1 110943337.040 1     -2245.483          50.000  
G14  20366114.747 1 107024654.289 1      -292.511          46.000  
G27  21453874.166 1 112740867.522 1     -2373.319          47.000  
G11  22730477.101 1 119449461.805 1      1980.961          41.000  
G 1  25004938.455 2 131401845.797 1      2618.389          38.000  
R 3  23875679.435 8               6     -3764.203          26.000  
R 5  21065000.469 1 112604465.787 1       523.132          45.000  
G22  24014478.702 1 126196913.166 1      1316.992          38.000  
R 4  20661723.890 1 110642565.471 1     -2422.054          42.000  
G31  23865277.369 1 125412866.363 1      1995.430          42.000  
R18  20796100.673 2 111010929.113 2     -3180.603          36.000  
R20  23290419.886 4 124544322.577 2      3687.513          31.000  
G16  25558860.621 8 134312822.606 3     -2147.682          30.000  
R19  19637947.821 2 105049733.479 1       588.194          36.000  
> 2020  4 13 14 42 30.0010000  0 16                     
G 8  21502151.912 1 112994566.916 1      -391.344          46.000  
G10  23593414.284 1 123984230.590 1     -2286.226          40.000  
G32  21112242.903 1 110945582.826 1     -2245.795          50.000  
G14  20366170.719 1 107024947.225 1      -292.897          46.000  
G27  21454325.725 1 112743241.144 1     -2373.744          47.000  
G11  22730100.124 1 119447480.980 1      1981.049          40.000  
G 1  25004440.225 2 131399227.386 1      2618.798          38.000  
R 3  23876384.468 9               9     -3763.993          25.000  
R 5  21064902.119 1 112603942.865 1       522.852          45.000  
G22  24014228.257 1 126195596.134 1      1317.261          38.000  
R 4  20662176.243 1 110644987.752 1     -2422.292          42.000  
G31  23864897.425 1 125410871.182 1      1995.577          42.000  
R18  20796696.737 2 111014110.200 2     -3181.651          36.000  
R20  23289730.253 4 124540635.132 2      3687.384          31.000  
G16  25559269.506 9               9     -2139.358          29.000  
R19  19637837.902 2 105049145.717 1       587.602          36.000  
> 2020  4 13 14 42 31.0010000  0 16                     
G 8  21502226.224 1 112994958.787 1      -392.297          46.000  
G10  23593849.562 1 123986516.928 1     -2286.613          40.000  
G32  21112670.425 1 110947829.114 1     -2246.765          50.000  
G14  20366226.734 1 107025240.846 1      -294.076          46.000  
G27  21454777.415 1 112745615.307 1     -2374.656          46.000  
G11  22729723.287 1 119445500.430 1      1980.206          40.000  
G 1  25003941.847 1 131396608.859 1      2618.480          38.000  
R 3  23877089.317 9               9     -3764.448          24.000  
R 5  21064804.023 1 112603420.463 1       521.985          45.000  
G22  24013977.811 1 126194279.186 1      1316.632          37.000  
R 4  20662628.762 1 110647410.326 1     -2422.912          42.000  
G31  23864517.769 1 125408876.053 1      1995.007          42.000  
R18  20797292.985 4 111017291.904 2     -3182.724          36.000  
R20  23289042.706 4 124536947.813 2      3687.012          31.000  
G16  25559679.001 9 134317019.33615     -2146.211          30.000  
R19  19637728.289 2 105048558.757 1       586.962          36.000  
> 2020  4 13 14 42 32.0010000  0 16                     
G 8  21502300.981 1 112995351.502 1      -393.040          46.000  
G10  23594284.745 1 123988803.396 1     -2286.836          40.000  
G32  21113098.069 1 110950076.061 1     -2247.467          50.000  
G14  20366283.177 1 107025535.303 1      -294.922          46.000  
G27  21455228.948 1 112747990.172 1     -2375.255          46.000  
G11  22729346.380 1 119443520.304 1      1979.921          40.000  
G 1  25003443.478 2 131393990.397 1      2618.725          39.000  
R 3  23877792.683 9               9     -3763.777          22.000  
R 5  21064706.153 1 112602898.798 1       521.088          45.000  
G22  24013727.148 1 126192962.479 1      1316.382          37.000  
R 4  20663081.403 1 110649833.351 1     -2423.494          42.000  
G31  23864138.070 1 125406881.149 1      1994.676          41.000  
R18  20797888.761 2 111020474.486 2     -3182.923          35.000  
R20  23288353.239 4 124533260.833 2      3686.545          31.000  
G16  25560086.534 9 134319166.029 4     -2147.358          29.000  
R19  19637618.771 2 105047972.802 1       585.522          36.000  
> 2020  4 13 14 42 33.0010000  0 16                     
G 8  21502375.633 1 112995744.574 1      -393.098          46.000  
G10  23594719.883 1 123991089.466 1     -2285.546          40.000  
G32  21113525.547 1 110952323.175 1     -2247.131          50.000  
G14  20366339.296 1 107025830.124 1      -294.883          46.000  
G27  21455680.726 1 112750365.264 1     -2375.040          46.000  
G11  22728969.237 1 119441540.143 1      1980.473          40.000  
G 1  25002945.187 2 131391371.516 1      2619.088          38.000  
R 3  23878496.633 9               9     -3767.590          20.000  
R 5  21064608.336 1 112602377.339 1       521.417          45.000  
G22  24013476.432 2 126191645.523 1      1316.901          37.000  
R 4  20663533.826 1 110652256.310 1     -2422.535          42.000  
G31  23863758.249 1 125404885.965 1      1995.435          41.000  
R18  20798485.070 4 111023657.400 2     -3182.175          35.000  
R20  23287663.083 4 124529573.703 3      3686.286          31.000  
G16  25560492.426 8 134321312.004 4     -2145.634          29.000  
R19  19637509.358 2 105047387.364 1       585.107          36.000  
> 2020  4 13 14 42 34.0010000  0 16                     
G 8  21502450.826 1 112996137.982 1      -393.742          46.000  
G10  23595154.908 1 123993375.185 1     -2285.500          40.000  
G32  21113953.574 1 110954570.460 1     -2247.504          50.000  
G14  20366395.521 1 107026125.295 1      -295.536          46.000  
G27  21456132.608 1 112752740.561 1     -2375.532          46.000  
G11  22728592.478 1 119439559.955 1      1979.785          40.000  
G 1  25002446.617 2 131388752.212 1      2618.820          39.000  
R 3  23879200.566 9               9     -3762.865          19.000  
R 5  21064510.964 1 112601856.058 1       521.100          46.000  
G22  24013225.768 1 126190328.330 1      1317.072          37.000  
R 4  20663986.433 1 110654679.235 1     -2423.055          42.000  
G31  23863378.453 1 125402890.488 1      1995.570          41.000  
R18  20799081.065 4 111026840.694 2     -3183.995          35.000  
R20  23286973.163 4 124525886.277 2      3688.179          32.000  
G16  25560898.859 8 134323457.387 3     -2145.562          29.000  
R19  19637399.989 2 105046802.354 1       584.216          36.000  
> 2020  4 13 14 42 35.0010000  0 16                     
G 8  21502525.748 1 112996532.080 1      -394.995          46.000  
G10  23595589.951 1 123995660.877 1     -2286.071          40.000  
G32  21114381.174 1 110956818.256 1     -2248.517          50.000  
G14  20366451.903 1 107026421.155 1      -296.642          46.000  
G27  21456584.630 1 112755116.409 1     -2376.562          46.000  
G11  22728215.597 1 119437580.019 1      1979.330          40.000  
G 1  25001948.692 1 131386132.782 1      2618.817          38.000  
R 3  23879903.897 9               9     -3764.097          18.000  
R 5  21064413.784 1 112601335.300 1       520.026          46.000  
G22  24012975.226 1 126189011.227 1      1316.821          37.000  
R 4  20664438.847 1 110657102.441 1     -2423.682          42.000  
G31  23862998.841 1 125400895.100 1      1994.968          41.000  
R18  20799677.513 4 111030024.608 2     -3184.875          35.000  
R20  23286282.535 4 124522199.132 2      3686.997          32.000  
G16  25561302.317 4 134325602.485 3     -2145.412          28.000  
R19  19637290.812 2 105046218.193 1       583.297          36.000  
> 2020  4 13 14 42 36.0010000  0 15                     
G 8  21502601.107 1 112996926.956 1      -394.764          46.000  
G10  23596025.168 1 123997946.675 1     -2285.653          40.000  
G32  21114809.141 1 110959066.693 1     -2248.297          50.000  
G14  20366508.494 1 107026717.836 1      -296.631          46.000  
G27  21457036.931 1 112757492.944 1     -2376.591          46.000  
G11  22727838.812 1 119435600.498 1      1979.812          40.000  
G 1  25001450.410 2 131383513.360 1      2620.311          38.000  
R 5  21064316.638 1 112600815.187 1       520.178          46.000  
G22  24012724.345 1 126187694.347 1      1317.230          37.000  
R 4  20664891.671 1 110659526.091 1     -2423.402          42.000  
G31  23862619.099 1 125398899.896 1      1995.676          42.000  
R18  20800274.197 4 111033209.358 2     -3185.208          36.000  
R20  23285594.639 4 124518512.284 2      3686.487          32.000  
G16  25561708.514 4 134327747.463 2     -2144.755          28.000  
R19  19637182.001 2 105045634.992 1       582.919          36.000  
> 2020  4 13 14 42 37.0010000  0 15                     
G 8  21502676.317 1 112997322.647 1      -396.552          46.000  
G10  23596460.028 1 124000232.537 1     -2286.351          40.000  
G32  21115236.950 1 110961315.722 1     -2249.493          50.000  
G14  20366564.989 1 107027015.307 1      -298.310          46.000  
G27  21457489.345 1 112759870.113 1     -2378.043          46.000  
G11  22727462.105 1 119433621.371 1      1978.391          41.000  
G 1  25000952.189 2 131380894.006 1      2619.076          39.000  
R 5  21064219.371 1 112600295.693 1       518.872          46.000  
G22  24012473.559 1 126186377.659 1      1316.296          37.000  
R 4  20665344.365 1 110661950.130 1     -2424.606          42.000  
G31  23862239.408 1 125396904.856 1      1994.728          42.000  
R18  20800871.501 4 111036394.840 2     -3186.260          36.000  
R20  23284908.505 4 124514825.648 2      3686.646          32.000  
G16  25562120.374 4 134329892.233 2     -2144.949          28.000  
R19  19637073.382 2 105045052.693 1       581.087          36.000  
> 2020  4 13 14 42 38.0010000  0 16                     
G 8  21502751.894 1 112997719.395 1      -396.689          46.000  
G10  23596894.922 1 124002518.739 1     -2285.815          40.000  
G32  21115665.039 1 110963565.663 1     -2249.695          50.000  
G14  20366621.815 1 107027313.851 1      -298.602          46.000  
G27  21457941.812 1 112762248.217 1     -2378.030          46.000  
G11  22727085.634 1 119431642.889 1      1978.972          40.000  
G 1  25000453.671 2 131378274.926 1      2619.248          39.000  
R 3  23882013.254 9               9     -3765.688          14.000  
R 5  21064122.679 1 112599777.166 1       518.543          46.000  
G22  24012222.476 2 126185061.431 1      1316.846          37.000  
R 4  20665797.163 1 110664374.842 1     -2424.757          42.000  
G31  23861859.883 1 125394910.252 1      1994.850          42.000  
R18  20801468.647 4 111039581.408 2     -3186.773          36.000  
R20  23284219.483 4 124511139.574 2      3686.654          32.000  
G16  25562528.317 4 134332037.123 2     -2144.739          29.000  
R19  19636964.842 2 105044471.586 1       580.816          36.000  
> 2020  4 13 14 42 39.0010000  0 16                     
G 8  21502827.436 1 112998116.753 1      -398.258          46.000  
G10  23597329.904 1 124004804.864 1     -2286.705          40.000  
G32  21116092.901 1 110965816.046 1     -2251.154          50.000  
G14  20366678.520 1 107027613.012 1      -300.103          46.000  
G27  21458394.366 1 112764626.808 1     -2379.453          46.000  
G11  22726709.067 1 119429664.670 1      1977.497          40.000  
G 1  24999955.441 2 131375655.654 1      2618.740          39.000  
R 3  23882715.197 9               9     -3760.811          13.000  
R 5  21064026.171 1 112599259.113 1       517.029          46.000  
G22  24011971.411 1 126183745.257 1      1315.436          36.000  
R 4  20666249.647 1 110666799.770 1     -2425.667          42.000  
G31  23861480.385 1 125392915.645 1      1994.114          42.000  
R18  20802066.003 4 111042768.613 2     -3188.179          36.000  
R20  23283529.633 4 124507453.688 2      3684.466          32.000  
G16  25562935.692 2 134334181.678 2     -2144.789          29.000  
R19  19636856.459 1 105043891.238 1       579.356          37.000  
> 2020  4 13 14 42 40.0010000  0 15                     
G 8  21502903.449 1 112998515.491 1      -398.962          46.000  
G10  23597764.990 1 124007091.642 1     -2286.436          40.000  
G32  21116521.348 1 110968067.629 1     -2251.788          50.000  
G14  20366735.512 1 107027913.570 1      -300.929          46.000  
G27  21458847.478 1 112767006.658 1     -2380.201          46.000  
G11  22726332.509 1 119427687.411 1      1977.013          40.000  
G 1  24999457.220 1 131373037.026 1      2618.707          39.000  
R 5  21063929.636 1 112598742.298 1       516.498          45.000  
G22  24011720.547 2 126182429.861 1      1315.417          36.000  
R 4  20666702.690 1 110669225.722 1     -2425.987          43.000  
G31  23861101.366 1 125390921.831 1      1993.738          42.000  
R18  20802663.621 2 111045957.180 1     -3188.437          36.000  
R20  23282840.907 4 124503768.564 2      3685.138          32.000  
G16  25563342.701 2 134336326.670 2     -2144.697          29.000  
R19  19636748.433 1 105043312.435 1       578.319          37.000  
> 2020  4 13 14 42 41.0010000  0 15                     
G 8  21502979.576 1 112998914.791 1      -399.578          46.000  
G10  23598199.928 1 124009378.297 1     -2286.680          40.000  
G32  21116949.838 1 110970319.603 1     -2252.173          50.000  
G14  20366792.609 1 107028214.696 1      -301.394          46.000  
G27  21459300.494 1 112769386.929 1     -2380.448          46.000  
G11  22725956.326 1 119425710.317 1      1976.995          40.000  
G 1  24998959.243 1 131370418.171 1      2619.033          39.000  
R 5  21063833.058 1 112598225.898 1       516.254          45.000  
G22  24011469.796 2 126181114.411 1      1315.668          36.000  
R 4  20667156.038 1 110671651.830 1     -2426.199          42.000  
G31  23860721.858 1 125388927.945 1      1993.884          42.000  
R18  20803260.846 4 111049146.373 2     -3189.374          36.000  
R20  23282151.275 4 124500083.551 2      3685.066          32.000  
G16  25563752.807 2 134338471.288 2     -2145.198          30.000  
R19  19636640.425 2 105042734.321 1       577.754          36.000  
> 2020  4 13 14 42 42.0010000  0 16                     
G 8  21503055.694 1 112999314.605 1      -400.168          46.000  
G10  23598634.770 1 124011664.727 1     -2286.047          40.000  
G32  21117378.546 1 110972571.919 1     -2252.417          50.000  
G14  20366849.680 1 107028516.353 1      -302.002          46.000  
G27  21459753.563 1 112771767.591 1     -2380.810          46.000  
G11  22725580.003 1 119423733.353 1      1977.225          40.000  
G 1  24998460.856 1 131367799.078 1      2619.229          39.000  
R 3  23884824.327 9               9     -3744.999          12.000  
R 5  21063736.174 1 112597709.873 1       515.942          45.000  
G22  24011218.827 1 126179798.914 1      1315.527          36.000  
R 4  20667609.054 1 110674078.047 1     -2426.271          43.000  
G31  23860342.412 1 125386933.958 1      1994.128          42.000  
R18  20803858.385 4 111052336.040 2     -3190.073          36.000  
R20  23281462.297 4 124496398.538 2      3684.860          32.000  
G16  25564165.854 8 134340615.413 3     -2144.069          30.000  
R19  19636532.382 2 105042156.854 1       577.168          36.000  
> 2020  4 13 14 42 43.0010000  0 16                     
G 8  21503131.855 1 112999714.837 1      -400.558          46.000  
G10  23599069.638 1 124013950.916 1     -2286.540          40.000  
G32  21117807.455 1 110974824.493 1     -2252.850          50.000  
G14  20366907.284 1 107028818.442 1      -302.478          46.000  
G27  21460206.431 1 112774148.550 1     -2381.338          46.000  
G11  22725203.724 1 119421756.409 1      1976.942          40.000  
G 1  24997962.469 1 131365179.630 1      2619.256          39.000  
R 3  23885527.012 9               9     -3744.999          12.000  
R 5  21063639.273 1 112597194.131 1       515.485          45.000  
G22  24010968.102 1 126178483.262 1      1315.460          36.000  
R 4  20668062.324 1 110676504.319 1     -2426.524          43.000  
G31  23859963.149 1 125384939.789 1      1994.127          42.000  
R18  20804455.941 4 111055526.162 2     -3191.024          36.000  
R20  23280773.187 4 124492713.417 2      3684.994          32.000  
G16  25564577.208 4 134342759.066 2     -2144.022          30.000  
R19  19636424.461 2 105041579.970 1       576.754          36.000  
> 2020  4 13 14 42 44.0010000  0 15                     
G 8  21503208.148 1 113000115.700 1      -400.959          46.000  
G10  23599504.497 1 124016236.972 1     -2285.786          40.000  
G32  21118236.233 1 110977077.499 1     -2252.771          50.000  
G14  20366965.009 1 107029121.161 1      -302.821          46.000  
G27  21460659.474 1 112776529.986 1     -2381.386          46.000  
G11  22724827.558 1 119419779.703 1      1977.057          40.000  
G 1  24997464.100 1 131362560.017 1      2619.914          39.000  
R 5  21063542.782 1 112596678.831 1       515.369          45.000  
G22  24010717.683 2 126177167.630 1      1315.826          36.000  
R 4  20668515.698 1 110678930.826 1     -2426.405          43.000  
G31  23859583.991 1 125382945.600 1      1994.612          42.000  
R18  20805053.550 4 111058716.846 2     -3190.520          35.000  
R20  23280083.843 4 124489028.351 2      3685.288          32.000  
G16  25564986.441 8 134344902.309 3     -2143.092          30.000  
R19  19636316.741 2 105041003.854 1       576.168          36.000  
> 2020  4 13 14 42 45.0010000  0 16                     
G 8  21503284.100 1 113000516.348 1      -400.720          46.000  
G10  23599939.252 1 124018522.117 1     -2284.936          40.000  
G32  21118664.697 1 110979330.135 1     -2252.563          50.000  
G14  20367022.350 1 107029423.674 1      -302.574          46.000  
G27  21461112.595 1 112778911.092 1     -2381.280          46.000  
G11  22724451.271 1 119417802.377 1      1977.537          40.000  
G 1  24996965.870 1 131359939.417 1      2620.493          39.000  
R 3  23886928.901 9               9     -3771.884          13.000  
R 5  21063446.509 1 112596163.160 1       515.826          45.000  
G22  24010467.237 1 126175851.192 1      1316.583          36.000  
R 4  20668968.723 1 110681356.692 1     -2425.613          43.000  
G31  23859204.475 1 125380950.606 1      1995.212          42.000  
R18  20805651.290 4 111061907.346 2     -3190.583          35.000  
R20  23279394.681 4 124485342.521 2      3687.194          32.000  
G16  25565391.461 8 134347044.443 3     -2141.484          30.000  
R19  19636209.064 2 105040427.648 1       576.380          36.000  
> 2020  4 13 14 42 46.0010000  0 16                     
G 8  21503360.235 1 113000917.766 1      -402.246          46.000  
G10  23600374.199 1 124020807.302 1     -2285.510          40.000  
G32  21119093.789 1 110981583.352 1     -2253.986          50.000  
G14  20367080.154 1 107029726.957 1      -304.142          46.000  
G27  21461566.021 1 112781292.793 1     -2382.416          46.000  
G11  22724075.122 1 119415825.419 1      1976.311          40.000  
G 1  24996467.186 2 131357318.779 1      2620.316          39.000  
R 3  23887630.671 9               9     -3756.823          15.000  
R 5  21063350.420 1 112595648.096 1       514.185          46.000  
G22  24010216.617 1 126174534.913 1      1315.656          36.000  
R 4  20669422.114 1 110683782.922 1     -2426.956          43.000  
G31  23858825.081 1 125378955.748 1      1994.421          42.000  
R18  20806249.021 4 111065098.542 2     -3192.145          35.000  
R20  23278705.433 4 124481657.041 2      3685.116          32.000  
G16  25565797.833 8 134349186.334 3     -2142.568          30.000  
R19  19636101.466 2 105039852.345 1       574.512          36.000  
> 2020  4 13 14 42 47.0010000  0 16                     
G 8  21503436.676 1 113001320.766 1      -403.614          46.000  
G10  23600809.172 1 124023093.353 1     -2286.138          40.000  
G32  21119523.021 1 110983837.970 1     -2255.011          50.000  
G14  20367138.316 1 107030031.826 1      -305.510          46.000  
G27  21462019.526 1 112783675.970 1     -2383.622          46.000  
G11  22723699.315 1 119413849.652 1      1975.219          40.000  
G 1  24995969.008 1 131354698.987 1      2619.561          39.000  
R 3  23888332.274 9               9     -3755.990          17.000  
R 5  21063254.662 1 112595134.486 1       513.110          46.000  
G22  24009966.216 2 126173219.648 1      1315.039          36.000  
R 4  20669875.619 1 110686210.352 1     -2427.793          43.000  
G31  23858445.731 1 125376961.851 1      1993.761          42.000  
R18  20806846.743 4 111068291.359 2     -3193.619          35.000  
R20  23278016.376 4 124477972.555 2      3685.184          32.000  
G16  25566208.218 8 134351328.931 3     -2143.528          30.000  
R19  19635994.182 2 105039278.763 1       573.145          36.000  
> 2020  4 13 14 42 48.0010000  0 16                     
G 8  21503513.640 1 113001724.056 1      -403.375          46.000  
G10  23601244.301 1 124025379.017 1     -2285.572          40.000  
G32  21119952.104 1 110986092.709 1     -2254.926          50.000  
G14  20367196.503 1 107030337.000 1      -305.352          46.000  
G27  21462472.900 1 112786059.302 1     -2383.479          46.000  
G11  22723323.350 1 119411873.762 1      1976.161          40.000  
G 1  24995470.386 2 131352078.711 1      2620.146          39.000  
R 3  23889033.982 9               9     -3762.185          20.000  
R 5  21063158.773 1 112594621.030 1       513.379          46.000  
G22  24009715.770 2 126171904.096 1      1315.424          36.000  
R 4  20670328.906 1 110688637.713 1     -2427.415          43.000  
G31  23858066.354 1 125374967.650 1      1994.058          42.000  
R18  20807444.710 4 111071484.419 2     -3192.095          35.000  
R20  23277327.520 4 124474287.927 2      3684.303          32.000  
G16  25566611.598 8 134353470.776 3     -2141.407          30.000  
R19  19635887.047 2 105038705.627 1       573.063          36.000  
> 2020  4 13 14 42 49.0010000  0 15                     
G 8  21503590.421 1 113002127.773 1      -404.334          46.000  
G10  23601679.257 1 124027664.369 1     -2285.482          40.000  
G32  21120381.344 1 110988347.703 1     -2255.414          50.000  
G14  20367254.901 1 107030642.616 1      -306.284          46.000  
G27  21462926.379 1 112788442.931 1     -2384.203          46.000  
G11  22722947.393 1 119409897.921 1      1975.551          40.000  
G 1  24994971.624 2 131349458.063 1      2620.366          39.000  
R 5  21063063.250 1 112594107.856 1       512.653          46.000  
G22  24009465.394 2 126170588.374 1      1315.375          36.000  
R 4  20670782.088 1 110691065.122 1     -2427.919          42.000  
G31  23857687.143 1 125372973.242 1      1994.041          42.000  
R18  20808042.528 4 111074678.010 3     -3194.284          35.000  
R20  23276638.507 4 124470603.106 2      3685.138          32.000  
G16  25567015.963 4 134355612.148 3     -2141.286          29.000  
R19  19635780.103 2 105038133.052 1       571.878          36.000  
> 2020  4 13 14 42 50.0010000  0 16                     
G 8  21503667.542 1 113002532.837 1      -405.279          46.000  
G10  23602114.535 1 124029950.395 1     -2285.845          40.000  
G32  21120810.733 1 110990603.908 1     -2256.323          50.000  
G14  20367313.263 1 107030949.607 1      -307.234          46.000  
G27  21463379.936 1 112790827.803 1     -2384.933          46.000  
G11  22722571.716 1 119407923.063 1      1974.876          40.000  
G 1  24994473.185 2 131346838.026 1      2620.665          39.000  
R 3  23890440.217 9               9     -3767.581          20.000  
R 5  21062967.841 1 112593595.920 1       511.725          46.000  
G22  24009215.385 2 126169273.434 1      1314.929          36.000  
R 4  20671235.480 1 110693493.519 1     -2428.486          42.000  
G31  23857307.654 1 125370979.595 1      1993.763          42.000  
R18  20808640.635 4 111077872.892 2     -3194.868          35.000  
R20  23275949.563 4 124466919.251 2      3683.640          32.000  
G16  25567423.216 4 134357753.940 2     -2141.273          29.000  
R19  19635673.578 2 105037562.011 1       570.805          36.000  
> 2020  4 13 14 42 51.0010000  0 16                     
G 8  21503744.454 1 113002938.683 1      -406.676          46.000  
G10  23602549.778 1 124032236.488 1     -2286.506          40.000  
G32  21121240.707 1 110992860.693 1     -2257.648          50.000  
G14  20367372.410 1 107031257.377 1      -308.610          46.000  
G27  21463833.686 1 112793213.313 1     -2386.312          46.000  
G11  22722195.516 1 119405948.580 1      1973.550          40.000  
G 1  24993974.693 1 131344218.000 1      2619.854          39.000  
R 3  23891142.160 9               9     -3746.748          19.000  
R 5  21062872.458 1 112593084.609 1       510.504          46.000  
G22  24008965.699 2 126167958.659 1      1314.630          37.000  
R 4  20671688.845 1 110695922.276 1     -2429.532          42.000  
G31  23856928.591 1 125368986.110 1      1993.046          43.000  
R18  20809239.133 4 111081068.576 2     -3196.340          35.000  
R20  23275260.795 4 124463235.538 2      3683.406          32.000  
G16  25567830.434 4 134359895.531 2     -2141.989          29.000  
R19  19635567.027 2 105036991.901 1       569.070          36.000  
> 2020  4 13 14 42 52.0010000  0 17                     
G 8  21503821.915 1 113003345.470 1      -407.508          46.000  
G10  23602984.926 1 124034522.810 1     -2286.686          41.000  
G32  21121670.549 1 110995118.244 1     -2258.246          50.000  
G14  20367431.052 1 107031566.096 1      -309.317          46.000  
G27  21464288.273 1 112795599.627 1     -2386.894          46.000  
G11  22721819.769 1 119403974.634 1      1973.366          40.000  
G 1  24993476.262 2 131341598.149 1      2619.397          39.000  
R 3  23891845.273 9               9     -3764.862          18.000  
R 5  21062777.224 1 112592574.074 1       509.900          46.000  
G22  24008716.056 1 126166644.231 1      1314.417          37.000  
R 4  20672142.158 1 110698351.575 1     -2429.627          42.000  
G31  23856549.520 1 125366992.945 1      1992.833          43.000  
R18  20809837.920 4 111084265.175 2     -3196.948          36.000  
G20  25451332.292 9               9     -2312.338          31.000  
R20  23274572.087 4 124459552.299 2      3682.332          32.000  
G16  25568237.888 4 134362037.100 2     -2141.648          29.000  
R19  19635460.677 2 105036422.868 1       568.062          36.000  
> 2020  4 13 14 42 53.0010000  0 17                     
G 8  21503899.455 1 113003753.086 1      -407.528          46.000  
G10  23603420.108 1 124036809.240 1     -2285.993          41.000  
G32  21122100.322 1 110997376.449 1     -2258.032          50.000  
G14  20367489.781 1 107031875.649 1      -309.500          46.000  
G27  21464742.825 1 112797986.643 1     -2386.916          46.000  
G11  22721444.153 1 119402001.124 1      1973.734          40.000  
G 1  24992977.544 1 131338978.342 1      2620.037          39.000  
R 3  23892548.037 9               9     -3757.312          19.000  
R 5  21062682.364 1 112592064.217 1       509.973          46.000  
G22  24008466.212 1 126165330.088 1      1314.520          37.000  
R 4  20672595.777 1 110700781.375 1     -2429.611          42.000  
G31  23856170.283 1 125365000.009 1      1993.127          43.000  
R18  20810436.916 4 111087462.654 2     -3197.529          36.000  
G20  25451777.805 9               6     -2312.253          31.000  
R20  23273883.309 4 124455869.354 2      3683.398          32.000  
G16  25568647.235 2 134364178.542 2     -2140.770          29.000  
R19  19635354.475 2 105035854.811 1       567.890          36.000  
> 2020  4 13 14 42 54.0010000  0 17                     
G 8  21503976.934 1 113004160.898 1      -407.686          46.000  
G10  23603855.203 1 124039095.124 1     -2285.345          41.000  
G32  21122530.365 1 110999634.658 1     -2258.002          51.000  
G14  20367548.946 1 107032185.381 1      -309.617          46.000  
G27  21465197.124 1 112800373.700 1     -2386.886          46.000  
G11  22721068.651 1 119400027.400 1      1973.778          40.000  
G 1  24992478.878 1 131336357.911 1      2621.105          39.000  
R 3  23893248.951 9               9     -3760.430          19.000  
R 5  21062587.226 1 112591554.382 1       510.065          46.000  
G22  24008216.770 1 126164015.504 1      1314.978          38.000  
R 4  20673049.648 1 110703210.964 1     -2429.357          42.000  
G31  23855791.169 1 125363006.608 1      1993.830          43.000  
R18  20811036.035 4 111090660.243 2     -3197.422          36.000  
G20  25452202.875 9 133752307.87514     -2313.459          30.000  
R20  23273194.479 4 124452186.114 2      3683.059          32.000  
G16  25569050.807 2 134366319.232 2     -2140.353          29.000  
R19  19635248.238 2 105035287.072 1       567.582          36.000  
> 2020  4 13 14 42 55.0010000  0 17                     
G 8  21504054.413 1 113004569.022 1      -408.120          46.000  
G10  23604290.307 1 124041380.645 1     -2285.541          41.000  
G32  21122960.260 1 111001893.012 1     -2258.344          51.000  
G14  20367607.604 1 107032495.451 1      -310.202          46.000  
G27  21465651.405 1 112802760.942 1     -2387.239          46.000  
G11  22720692.913 1 119398053.597 1      1973.642          40.000  
G 1  24991979.932 2 131333737.053 1      2621.423          39.000  
R 3  23893952.335 9               9     -3758.375          19.000  
R 5  21062491.695 1 112591044.717 1       509.802          46.000  
G22  24007966.944 1 126162700.644 1      1314.972          38.000  
R 4  20673503.406 1 110705640.489 1     -2429.437          42.000  
G31  23855412.167 1 125361012.929 1      1994.008          43.000  
R18  20811635.127 4 111093858.187 2     -3197.953          35.000  
G20  25452644.531 8 133754620.705 4     -2312.941          30.000  
R20  23272505.213 4 124448502.653 2      3683.344          32.000  
G16  25569455.207 2 134368459.282 2     -2139.860          29.000  
R19  19635142.201 2 105034719.763 1       567.284          36.000  
> 2020  4 13 14 42 56.0010000  0 17                     
G 8  21504132.180 1 113004977.273 1      -408.150          46.000  
G10  23604725.184 1 124043665.536 1     -2284.595          41.000  
G32  21123389.980 1 111004151.293 1     -2258.136          51.000  
G14  20367666.822 1 107032805.632 1      -310.190          46.000  
G27  21466105.625 1 112805148.158 1     -2387.046          46.000  
G11  22720317.375 1 119396079.512 1      1974.313          40.000  
G 1  24991481.327 1 131331115.520 1      2622.062          39.000  
R 3  23894655.134 9               9     -3764.756          19.000  
R 5  21062395.971 1 112590535.013 1       509.845          46.000  
G22  24007717.057 1 126161385.295 1      1315.723          38.000  
R 4  20673957.182 1 110708069.682 1     -2429.000          42.000  
G31  23855032.538 1 125359018.745 1      1994.365          43.000  
R18  20812234.097 4 111097056.221 2     -3198.328          35.000  
G20  25453079.888 8 133756932.912 3     -2310.300          30.000  
R20  23271815.982 4 124444818.761 3      3684.085          32.000  
G16  25569861.352 2 134370598.441 2     -2138.844          29.000  
R19  19635036.305 2 105034152.740 1       567.067          36.000  
> 2020  4 13 14 42 57.0010000  0 17                     
G 8  21504209.537 1 113005384.952 1      -407.202          46.000  
G10  23605159.799 1 124045949.147 1     -2282.827          41.000  
G32  21123819.421 1 111006408.838 1     -2257.068          50.000  
G14  20367725.734 1 107033115.232 1      -309.096          46.000  
G27  21466559.715 1 112807534.676 1     -2386.056          46.000  
G11  22719941.585 1 119394104.450 1      1975.706          40.000  
G 1  24990982.173 1 131328492.640 1      2623.751          39.000  
R 3  23895359.992 9               9     -3762.414          19.000  
R 5  21062300.144 1 112590024.577 1       510.986          46.000  
G22  24007466.873 1 126160068.802 1      1317.426          38.000  
R 4  20674410.800 1 110710497.845 1     -2427.550          43.000  
G31  23854652.498 1 125357023.360 1      1996.151          42.000  
R18  20812832.988 4 111100253.643 2     -3196.816          35.000  
G20  25453517.260 8 133759243.983 3     -2309.503          30.000  
R20  23271129.176 4 124441133.760 2      3686.222          32.000  
G16  25570269.556 2 134372736.063 2     -2136.520          29.000  
R19  19634930.138 2 105033585.262 1       567.506          36.000  
> 2020  4 13 14 42 58.0010000  0 17                     
G 8  21504287.374 1 113005792.663 1      -408.291          46.000  
G10  23605594.353 1 124048232.086 1     -2283.087          41.000  
G32  21124248.784 1 111008666.240 1     -2257.965          50.000  
G14  20367784.759 1 107033424.896 1      -310.258          46.000  
G27  21467013.796 1 112809921.095 1     -2387.084          46.000  
G11  22719565.864 1 119392129.064 1      1974.937          41.000  
G 1  24990482.791 2 131325869.003 1      2623.963          39.000  
R 3  23896063.314 9               9     -3762.943          19.000  
R 5  21062204.691 1 112589514.029 1       510.022          46.000  
G22  24007216.724 1 126158751.743 1      1316.827          37.000  
R 4  20674864.497 1 110712925.660 1     -2428.317          43.000  
G31  23854272.642 1 125355027.395 1      1995.740          42.000  
R18  20813432.028 4 111103451.125 2     -3198.193          35.000  
G20  25453957.869 8 133761554.285 3     -2310.721          30.000  
R20  23270435.731 8 124437448.326 3      3684.922          32.000  
G16  25570675.300 2 134374872.800 2     -2136.499          29.000  
R19  19634824.189 2 105033017.909 1       566.453          36.000  
> 2020  4 13 14 42 59.0010000  0 17                     
G 8  21504365.176 1 113006201.923 1      -410.121          46.000  
G10  23606028.759 1 124050515.868 1     -2284.109          41.000  
G32  21124678.007 1 111010925.028 1     -2259.473          50.000  
G14  20367843.994 1 107033736.115 1      -312.026          46.000  
G27  21467468.095 1 112812308.927 1     -2388.696          46.000  
G11  22719190.475 1 119390154.825 1      1973.436          41.000  
G 1  24989983.767 2 131323246.201 1      2622.496          39.000  
R 3  23896765.990 9               9     -3756.300          20.000  
R 5  21062109.404 1 112589004.892 1       508.331          46.000  
G22  24006966.549 1 126157435.642 1      1315.753          38.000  
R 4  20675318.264 1 110715354.650 1     -2429.643          43.000  
G31  23853892.454 1 125353032.380 1      1994.616          42.000  
R18  20814031.269 4 111106650.149 2     -3200.204          34.000  
G20  25454399.412 8 133763865.383 4     -2311.351          29.000  
R20  23269746.081 8 124433763.904 3      3683.471          32.000  
G16  25571080.965 4 134377010.200 2     -2137.965          28.000  
R19  19634718.275 2 105032452.298 1       564.688          36.000  
> 2020  4 13 14 43  0.0010000  0 17                     
G 8  21504443.448 1 113006612.255 1      -410.632          46.000  
G10  23606463.452 1 124052800.034 1     -2284.248          41.000  
G32  21125107.797 1 111013184.716 1     -2259.839          50.000  
G14  20367903.604 1 107034048.430 1      -312.731          46.000  
G27  21467922.586 1 112814697.721 1     -2389.114          46.000  
G11  22718814.885 1 119388181.277 1      1973.095          40.000  
G 1  24989484.691 1 131320623.666 1      2622.864          39.000  
R 3  23897468.667 9               9     -3760.380          20.000  
R 5  21062014.641 1 112588496.668 1       508.002          46.000  
G22  24006716.523 1 126156120.063 1      1315.485          37.000  
R 4  20675771.856 1 110717784.361 1     -2429.891          43.000  
G31  23853512.528 1 125351037.831 1      1994.734          42.000  
R18  20814630.771 4 111109850.248 2     -3200.268          34.000  
G20  25454834.717 8 133766176.866 5     -2310.946          29.000  
R20  23269055.401 8 124430080.027 3      3683.951          32.000  
G16  25571487.564 4 134379147.616 3     -2137.035          28.000  
R19  19634612.727 2 105031887.918 1       563.996          36.000  
> 2020  4 13 14 43  1.0010000  0 17                     
G 8  21504521.870 1 113007023.609 1      -412.380          46.000  
G10  23606898.067 1 124055084.509 1     -2285.205          41.000  
G32  21125537.439 1 111015445.269 1     -2261.438          50.000  
G14  20367963.196 1 107034361.769 1      -314.271          46.000  
G27  21468377.513 1 112817087.410 1     -2390.671          46.000  
G11  22718439.226 1 119386208.343 1      1972.121          40.000  
G 1  24988985.676 2 131318001.399 1      2621.992          39.000  
R 3  23898171.606 9               9     -3754.153          21.000  
R 5  21061919.956 1 112587989.319 1       506.305          46.000  
G22  24006466.601 1 126154804.885 1      1314.801          37.000  
R 4  20676225.640 1 110720214.716 1     -2431.033          43.000  
G31  23853132.951 1 125349043.712 1      1993.208          42.000  
R18  20815230.404 4 111113051.382 2     -3201.992          34.000  
G20  25455281.180 8 133768488.621 5     -2311.975          29.000  
R20  23268368.770 4 124426396.696 2      3682.133          32.000  
G16  25571892.252 4 134381285.178 3     -2138.160          27.000  
R19  19634507.476 2 105031324.731 1       561.800          36.000  
> 2020  4 13 14 43  2.0010000  0 17                     
G 8  21504600.701 1 113007436.085 1      -412.717          46.000  
G10  23607332.743 1 124057369.383 1     -2284.631          41.000  
G32  21125967.517 1 111017706.759 1     -2261.475          50.000  
G14  20368022.702 1 107034676.240 1      -314.441          46.000  
G27  21468832.196 1 112819478.084 1     -2390.806          46.000  
G11  22718064.002 1 119384236.142 1      1972.309          40.000  
G 1  24988486.634 2 131315379.483 1      2622.396          39.000  
R 3  23898874.718 9               9     -3764.683          22.000  
R 5  21061825.367 1 112587482.946 1       506.299          46.000  
G22  24006216.382 1 126153490.246 1      1315.051          37.000  
R 4  20676679.529 1 110722645.812 1     -2430.906          43.000  
G31  23852753.531 1 125347050.068 1      1993.663          42.000  
R18  20815830.264 4 111116253.596 2     -3201.941          34.000  
G20  25455719.015 8 133770800.885 5     -2312.572          28.000  
R20  23267678.143 4 124422713.949 2      3682.948          32.000  
G16  25572300.098 4 134383422.885 3     -2137.468          27.000  
R19  19634402.365 2 105030762.799 1       562.003          36.000  
> 2020  4 13 14 43  3.0010000  0 16                     
G 8  21504679.402 1 113007849.064 1      -413.634          46.000  
G10  23607767.193 1 124059654.039 1     -2284.728          41.000  
G32  21126397.717 1 111019968.571 1     -2262.421          50.000  
G14  20368082.451 1 107034991.220 1      -315.686          46.000  
G27  21469287.010 1 112821869.112 1     -2391.562          46.000  
G11  22717688.500 1 119382264.055 1      1971.602          40.000  
G 1  24987987.523 2 131312757.286 1      2622.052          38.000  
R 3  23899576.767 9               9     -3765.479          23.000  
R 5  21061730.769 1 112586976.962 1       505.463          46.000  
G22  24005966.015 1 126152175.540 1      1314.264          37.000  
R 4  20677133.479 1 110725077.003 1     -2431.778          43.000  
G31  23852373.840 1 125345056.309 1      1993.492          42.000  
R18  20816430.246 4 111119456.324 2     -3203.291          34.000  
R20  23266990.046 4 124419031.172 2      3682.809          31.000  
G16  25572703.181 4 134385560.177 4     -2138.431          26.000  
R19  19634297.358 2 105030201.485 1       561.082          35.000  
> 2020  4 13 14 43  4.0010000  0 16                     
G 8  21504758.181 1 113008262.804 1      -414.058          46.000  
G10  23608201.747 1 124061938.755 1     -2284.607          41.000  
G32  21126827.961 1 111022230.953 1     -2262.537          49.000  
G14  20368142.646 1 107035306.961 1      -316.101          46.000  
G27  21469742.164 1 112824260.761 1     -2391.764          46.000  
G11  22717313.189 1 119380292.308 1      1971.925          40.000  
G 1  24987488.264 2 131310135.067 1      2622.355          38.000  
R 3  23900280.360 9               9     -3757.941          24.000  
R 5  21061636.294 1 112586471.610 1       505.103          46.000  
G22  24005715.604 1 126150860.990 1      1314.551          37.000  
R 4  20677587.595 1 110727508.552 1     -2431.788          43.000  
G31  23851994.237 1 125343062.695 1      1993.787          42.000  
R18  20817030.411 4 111122659.796 2     -3203.576          34.000  
R20  23266299.165 4 124415348.684 2      3682.247          32.000  
G16  25573107.179 4 134387697.169 4     -2137.288          25.000  
R19  19634192.534 2 105029641.101 1       560.184          35.000  
> 2020  4 13 14 43  5.0010000  0 16                     
G 8  21504837.152 1 113008677.232 1      -414.859          47.000  
G10  23608636.615 1 124064223.440 1     -2284.759          41.000  
G32  21127258.475 1 111024493.865 1     -2263.226          49.000  
G14  20368202.552 1 107035623.415 1      -316.971          46.000  
G27  21470197.562 1 112826653.001 1     -2392.837          46.000  
G11  22716938.245 1 119378320.901 1      1971.323          40.000  
G 1  24986989.039 1 131307512.770 1      2622.575          38.000  
R 3  23900982.007 9               9     -3757.138          26.000  
R 5  21061541.609 1 112585966.795 1       504.559          46.000  
G22  24005465.551 1 126149546.537 1      1314.410          36.000  
R 4  20678041.955 1 110729940.447 1     -2432.152          43.000  
G31  23851614.939 1 125341069.188 1      1993.360          41.000  
R18  20817630.594 4 111125864.023 2     -3205.007          35.000  
R20  23265611.374 8 124411666.359 3      3682.511          32.000  
G16  25573509.267 4 134389833.946 5     -2136.488          25.000  
R19  19634088.086 2 105029081.578 1       558.846          36.000  
> 2020  4 13 14 43  6.0010000  0 16                     
G 8  21504916.428 1 113009092.439 1      -415.427          47.000  
G10  23609071.396 1 124066508.191 1     -2284.692          41.000  
G32  21127689.051 1 111026757.366 1     -2263.599          49.000  
G14  20368262.502 1 107035940.638 1      -317.551          46.000  
G27  21470653.327 1 112829045.833 1     -2392.984          47.000  
G11  22716563.336 1 119376349.851 1      1970.975          40.000  
G 1  24986490.120 2 131304890.447 1      2623.084          38.000  
R 3  23901683.514 9 127947556.12635     -3757.488          27.000  
R 5  21061447.316 1 112585462.584 1       503.998          46.000  
G22  24005215.053 1 126148232.278 1      1314.331          36.000  
R 4  20678496.376 1 110732372.696 1     -2432.037          43.000  
G31  23851235.144 1 125339075.802 1      1993.550          42.000  
R18  20818231.135 4 111129068.929 2     -3205.349          34.000  
R20  23264919.796 4 124407984.306 2      3681.844          32.000  
G16  25573913.484 8 134391970.476 5     -2135.444          25.000  
R19  19633983.559 2 105028522.939 1       558.344          36.000  
> 2020  4 13 14 43  7.0010000  0 16                     
G 8  21504995.556 1 113009508.207 1      -415.607          47.000  
G10  23609505.889 1 124068792.788 1     -2284.025          41.000  
G32  21128119.495 1 111029021.254 1     -2263.611          49.000  
G14  20368322.915 1 107036258.435 1      -317.573          46.000  
G27  21471108.760 1 112831439.117 1     -2393.084          47.000  
G11  22716188.252 1 119374378.968 1      1971.072          41.000  
G 1  24985991.087 2 131302267.955 1      2623.311          38.000  
R 3  23902384.821 8 127951313.19914     -3757.054          28.000  
R 5  21061352.972 1 112584958.775 1       503.943          46.000  
G22  24004964.529 2 126146918.020 1      1314.355          36.000  
R 4  20678950.945 1 110734805.109 1     -2432.150          43.000  
G31  23850855.907 1 125337082.386 1      1993.940          42.000  
R18  20818832.077 4 111132274.438 2     -3205.548          35.000  
R20  23264231.925 8 124404302.321 3      3682.229          32.000  
G16  25574317.692 4 134394106.765 5     -2135.470          24.000  
R19  19633879.312 2 105027965.008 1       558.133          36.000  
> 2020  4 13 14 43  8.0010000  0 16                     
G 8  21505074.693 1 113009924.408 1      -416.891          47.000  
G10  23609940.574 1 124071077.102 1     -2284.449          41.000  
G32  21128550.088 1 111031285.411 1     -2264.661          49.000  
G14  20368383.493 1 107036576.689 1      -319.000          46.000  
G27  21471564.673 1 112833832.706 1     -2394.351          47.000  
G11  22715813.614 1 119372408.116 1      1970.587          41.000  
G 1  24985491.863 2 131299645.136 1      2622.342          38.000  
R 3  23903086.337 4 127955070.321 3     -3757.637          29.000  
R 5  21061258.680 1 112584455.261 1       502.899          46.000  
G22  24004714.066 2 126145603.556 1      1314.130          36.000  
R 4  20679405.585 1 110737237.540 1     -2433.049          43.000  
G31  23850476.277 1 125335088.806 1      1993.047          41.000  
R18  20819432.905 4 111135480.332 2     -3206.483          35.000  
R20  23263542.781 4 124400620.247 2      3681.851          32.000  
G16  25574723.960 4 134396242.426 5     -2135.773          24.000  
R19  19633775.300 2 105027407.687 1       556.610          36.000  
> 2020  4 13 14 43  9.0010000  0 16                     
G 8  21505154.013 1 113010341.941 1      -418.534          47.000  
G10  23610375.372 1 124073362.069 1     -2285.827          41.000  
G32  21128981.143 1 111033550.709 1     -2266.241          49.000  
G14  20368444.377 1 107036896.252 1      -320.540          46.000  
G27  21472020.604 1 112836227.461 1     -2395.738          47.000  
G11  22715439.018 1 119370438.235 1      1968.897          41.000  
G 1  24984992.926 1 131297022.842 1      2621.609          38.000  
R 3  23903785.585 4 127958827.945 3     -3758.115          29.000  
R 5  21061164.763 1 112583952.946 1       501.148          46.000  
G22  24004463.961 2 126144289.846 1      1313.013          36.000  
R 4  20679859.945 1 110739670.918 1     -2434.081          43.000  
G31  23850097.110 1 125333095.893 1      1992.381          41.000  
R18  20820034.431 4 111138687.612 2     -3208.076          35.000  
R20  23262853.533 4 124396938.971 2      3680.855          32.000  
G16  25575134.258 4 134398378.460 5     -2136.423          25.000  
R19  19633671.358 2 105026851.800 1       554.939          36.000  
> 2020  4 13 14 43 10.0010000  0 16                     
G 8  21505233.795 1 113010760.529 1      -418.724          46.000  
G10  23610809.996 1 124075647.318 1     -2284.736          41.000  
G32  21129412.303 1 111035816.881 1     -2266.144          49.000  
G14  20368505.383 1 107037216.893 1      -320.701          46.000  
G27  21472476.499 1 112838623.157 1     -2395.753          47.000  
G11  22715064.458 1 119368468.982 1      1969.349          41.000  
G 1  24984494.051 2 131294400.822 1      2622.474          38.000  
R 3  23904485.278 8 127962585.828 3     -3757.555          29.000  
R 5  21061070.837 1 112583451.528 1       501.563          46.000  
G22  24004213.681 2 126142976.609 1      1313.458          36.000  
R 4  20680314.654 1 110742105.003 1     -2433.933          43.000  
G31  23849717.856 1 125331103.457 1      1992.523          41.000  
R18  20820635.679 4 111141895.960 2     -3208.365          35.000  
R20  23262166.046 4 124393258.266 2      3680.801          31.000  
G16  25575543.849 4 134400514.614 4     -2135.909          25.000  
R19  19633567.625 2 105026297.154 1       554.434          37.000  
> 2020  4 13 14 43 11.0010000  0 16                     
G 8  21505313.516 1 113011179.639 1      -419.325          46.000  
G10  23611244.838 1 124077932.434 1     -2284.955          41.000  
G32  21129843.917 1 111038083.416 1     -2266.656          49.000  
G14  20368566.782 1 107037538.066 1      -321.421          46.000  
G27  21472932.186 1 112841019.237 1     -2396.196          47.000  
G11  22714689.575 1 119366499.885 1      1968.791          41.000  
G 1  24983995.358 2 131291778.563 1      2622.467          38.000  
R 3  23905187.500 8 127966343.462 3     -3757.948          30.000  
R 5  21060976.911 1 112582950.499 1       500.806          46.000  
G22  24003963.314 2 126141663.303 1      1313.062          35.000  
R 4  20680769.075 1 110744539.193 1     -2434.311          43.000  
G31  23849338.706 1 125329110.916 1      1992.571          41.000  
R18  20821237.022 4 111145104.802 2     -3208.416          35.000  
R20  23261477.566 4 124389577.543 2      3680.747          32.000  
G16  25575955.928 4 134402650.352 4     -2135.478          26.000  
R19  19633464.040 2 105025743.151 1       553.590          37.000  
> 2020  4 13 14 43 12.0010000  0 16                     
G 8  21505393.438 1 113011599.687 1      -420.302          46.000  
G10  23611679.793 1 124080217.754 1     -2285.166          41.000  
G32  21130275.766 1 111040350.702 1     -2267.407          50.000  
G14  20368628.224 1 107037860.180 1      -322.343          46.000  
G27  21473388.282 1 112843416.119 1     -2397.090          47.000  
G11  22714314.893 1 119364531.293 1      1968.535          41.000  
G 1  24983496.212 2 131289156.465 1      2622.364          38.000  
R 3  23905887.341 8 127970101.187 3     -3758.037          31.000  
R 5  21060883.282 1 112582450.212 1       500.250          46.000  
G22  24003713.209 2 126140350.326 1      1313.416          35.000  
R 4  20681223.836 1 110746973.916 1     -2434.747          43.000  
G31  23848959.243 1 125327118.689 1      1992.539          41.000  
R18  20821838.391 4 111148314.568 2     -3209.970          35.000  
R20  23260789.582 8 124385897.241 3      3680.481          32.000  
G16  25576367.133 4 134404785.979 3     -2135.490          26.000  
R19  19633360.683 2 105025190.229 1       552.447          36.000  
> 2020  4 13 14 43 13.0010000  0 16                     
G 8  21505473.299 1 113012019.843 1      -420.387          46.000  
G10  23612114.819 1 124082502.488 1     -2284.784          41.000  
G32  21130707.598 1 111042617.922 1     -2267.371          50.000  
G14  20368689.282 1 107038182.415 1      -322.548          46.000  
G27  21473843.907 1 112845812.984 1     -2396.979          47.000  
G11  22713940.080 1 119362562.448 1      1968.754          41.000  
G 1  24982997.180 1 131286533.722 1      2622.594          39.000  
R 3  23906589.320 8 127973858.168 3     -3756.263          31.000  
R 5  21060789.618 1 112581949.906 1       500.043          46.000  
G22  24003463.078 2 126139036.892 1      1313.428          35.000  
R 4  20681678.327 1 110749408.358 1     -2434.378          43.000  
G31  23848579.910 1 125325125.987 1      1992.864          41.000  
R18  20822439.900 4 111151524.394 2     -3210.054          35.000  
R20  23260103.719 8 124382216.548 3      3679.975          32.000  
G16  25576777.702 4 134406920.864 3     -2134.849          27.000  
R19  19633257.255 2 105024637.545 1       552.458          36.000  
> 2020  4 13 14 43 14.0010000  0 16                     
G 8  21505552.994 1 113012440.672 1      -421.224          46.000  
G10  23612549.486 1 124084787.184 1     -2284.898          42.000  
G32  21131139.456 1 111044885.653 1     -2268.127          50.000  
G14  20368750.550 1 107038505.347 1      -323.355          46.000  
G27  21474300.256 1 112848210.409 1     -2397.745          47.000  
G11  22713565.450 1 119360593.885 1      1968.638          41.000  
G 1  24982498.016 2 131283910.898 1      2622.461          39.000  
R 3  23907289.815 4 127977615.131 2     -3757.751          31.000  
R 5  21060696.381 1 112581450.137 1       499.469          46.000  
G22  24003213.034 2 126137723.547 1      1313.080          35.000  
R 4  20682132.940 1 110751843.085 1     -2434.787          43.000  
G31  23848200.629 1 125323133.351 1      1992.263          41.000  
R18  20823041.182 4 111154734.955 2     -3211.420          35.000  
R20  23259415.412 4 124378535.997 2      3679.679          32.000  
G16  25577187.965 2 134409055.406 2     -2134.778          28.000  
R19  19633153.967 1 105024085.689 1       551.596          36.000  
> 2020  4 13 14 43 15.0010000  0 16                     
G 8  21505632.864 1 113012862.020 1      -421.478          46.000  
G10  23612984.293 1 124087071.699 1     -2284.303          42.000  
G32  21131571.183 1 111047153.724 1     -2267.896          50.000  
G14  20368812.106 1 107038828.795 1      -323.273          46.000  
G27  21474756.588 1 112850608.201 1     -2397.689          46.000  
G11  22713190.881 1 119358625.464 1      1968.574          41.000  
G 1  24981998.879 2 131281287.804 1      2623.240          39.000  
R 3  23907986.358 8 127981371.631 3     -3755.885          31.000  
R 5  21060603.119 1 112580950.786 1       499.426          46.000  
G22  24002962.658 2 126136410.110 1      1313.593          35.000  
R 4  20682587.571 1 110754277.922 1     -2434.811          43.000  
G31  23847821.410 1 125321140.588 1      1993.140          41.000  
R18  20823642.569 4 111157946.021 2     -3211.158          35.000  
R20  23258726.931 4 124374855.462 2      3680.396          32.000  
G16  25577597.138 2 134411189.515 2     -2133.862          28.000  
R19  19633051.020 2 105023534.489 1       551.625          36.000  
> 2020  4 13 14 43 16.0010000  0 16                     
G 8  21505713.074 1 113013283.678 1      -422.087          46.000  
G10  23613419.153 1 124089355.803 1     -2284.295          42.000  
G32  21132002.998 1 111049421.952 1     -2268.549          50.000  
G14  20368873.661 1 107039152.589 1      -324.186          46.000  
G27  21475212.755 1 112853006.193 1     -2398.444          47.000  
G11  22712816.399 1 119356656.960 1      1968.337          41.000  
G 1  24981499.524 1 131278664.235 1      2623.681          39.000  
R 3  23908689.244 4 127985127.644 3     -3755.845          31.000  
R 5  21060509.838 1 112580451.603 1       498.767          46.000  
G22  24002712.553 2 126135096.436 1      1313.116          35.000  
R 4  20683042.315 1 110756712.705 1     -2435.126          43.000  
G31  23847442.060 1 125319147.562 1      1992.915          41.000  
R18  20824244.235 4 111161157.390 2     -3211.070          35.000  
R20  23258038.834 4 124371174.715 2      3680.595          32.000  
G16  25578008.117 8 134413322.998 3     -2133.316          29.000  
R19  19632948.055 2 105022983.791 1       549.979          36.000  
> 2020  4 13 14 43 17.0010000  0 16                     
G 8  21505793.301 1 113013705.878 1      -422.171          46.000  
G10  23613854.117 1 124091639.725 1     -2283.442          42.000  
G32  21132434.925 1 111051690.517 1     -2268.469          50.000  
G14  20368935.060 1 107039476.910 1      -324.265          46.000  
G27  21475669.479 1 112855404.578 1     -2398.517          47.000  
G11  22712441.821 1 119354688.606 1      1968.481          41.000  
G 1  24981000.290 2 131276040.456 1      2624.041          38.000  
R 3  23909390.394 4 127988883.361 2     -3755.565          32.000  
R 5  21060416.471 1 112579952.787 1       498.926          46.000  
G22  24002462.194 2 126133782.661 1      1313.940          35.000  
R 4  20683496.902 1 110759147.644 1     -2434.720          42.000  
G31  23847062.596 1 125317154.447 1      1993.375          41.000  
R18  20824845.919 4 111164369.328 2     -3211.614          35.000  
R20  23257352.325 4 124367494.013 2      3680.854          32.000  
G16  25578414.611 8 134415456.056 3     -2132.127          30.000  
R19  19632845.308 2 105022433.702 1       550.105          37.000  
> 2020  4 13 14 43 18.0010000  0 16                     
G 8  21505873.599 1 113014128.150 1      -422.834          46.000  
G10  23614288.898 1 124093923.041 1     -2283.521          42.000  
G32  21132866.460 1 111053958.996 1     -2268.927          50.000  
G14  20368996.904 1 107039801.333 1      -324.905          46.000  
G27  21476125.523 1 112857802.900 1     -2398.711          46.000  
G11  22712066.895 1 119352719.946 1      1968.250          41.000  
G 1  24980500.699 1 131273415.991 1      2624.085          39.000  
R 3  23910092.451 4 127992638.332 2     -3755.365          32.000  
R 5  21060323.060 1 112579453.858 1       498.596          46.000  
G22  24002211.827 2 126132468.399 1      1313.977          34.000  
R 4  20683951.070 1 110761582.259 1     -2434.898          42.000  
G31  23846683.629 1 125315160.815 1      1993.407          42.000  
R18  20825447.341 4 111167581.296 2     -3212.364          35.000  
R20  23256664.289 4 124363812.931 2      3680.580          32.000  
G16  25578816.507 8 134417588.235 2     -2132.013          30.000  
R19  19632742.753 2 105021883.852 1       549.597          37.000  
> 2020  4 13 14 43 19.0010000  0 16                     
G 8  21505954.166 1 113014551.538 1      -424.347          46.000  
G10  23614723.469 1 124096206.771 1     -2284.305          42.000  
G32  21133298.275 1 111056228.431 1     -2270.239          50.000  
G14  20369058.991 1 107040126.886 1      -326.632          46.000  
G27  21476581.995 1 112860202.215 1     -2400.148          46.000  
G11  22711692.090 1 119350752.001 1      1967.328          41.000  
G 1  24980001.248 2 131270791.873 1      2623.387          39.000  
R 3  23910793.741 4 127996393.610 3     -3755.444          32.000  
R 5  21060229.571 1 112578955.900 1       497.235          46.000  
G22  24001961.399 2 126131154.663 1      1312.921          34.000  
R 4  20684405.674 1 110764017.587 1     -2436.166          42.000  
G31  23846304.462 1 125313167.678 1      1992.335          42.000  
R18  20826049.268 4 111170794.383 2     -3214.344          35.000  
R20  23255975.076 4 124360132.391 2      3679.619          33.000  
G16  25579222.512 4 134419720.572 2     -2132.412          30.000  
R19  19632640.032 2 105021335.277 1       547.584          37.000  
> 2020  4 13 14 43 20.0010000  0 16                     
G 8  21506034.935 1 113014976.049 1      -425.188          46.000  
G10  23615158.712 1 124098490.903 1     -2284.727          42.000  
G32  21133730.229 1 111058498.789 1     -2270.898          50.000  
G14  20369121.559 1 107040453.548 1      -327.244          46.000  
G27  21477038.955 1 112862602.508 1     -2400.778          46.000  
G11  22711317.373 1 119348784.789 1      1966.588          41.000  
G 1  24979501.962 2 131268168.080 1      2623.136          39.000  
R 3  23911494.140 8 128000149.168 3     -3754.591          31.000  
R 5  21060136.552 1 112578458.908 1       496.484          46.000  
G22  24001711.128 2 126129841.452 1      1312.445          34.000  
R 4  20684860.261 1 110766453.666 1     -2436.802          42.000  
G31  23845925.784 1 125311175.036 1      1992.209          42.000  
R18  20826651.196 4 111174008.563 2     -3214.808          36.000  
R20  23255287.258 4 124356452.462 2      3679.433          33.000  
G16  25579627.576 4 134421853.093 2     -2132.812          30.000  
R19  19632537.879 2 105020787.992 1       546.383          37.000  
> 2020  4 13 14 43 21.0010000  0 16                     
G 8  21506116.052 1 113015401.410 1      -425.784          46.000  
G10  23615593.563 1 124100775.145 1     -2284.308          42.000  
G32  21134162.296 1 111060769.811 1     -2271.289          50.000  
G14  20369183.865 1 107040781.065 1      -327.741          46.000  
G27  21477495.749 1 112865003.514 1     -2401.163          46.000  
G11  22710943.310 1 119346818.017 1      1966.802          41.000  
G 1  24979002.406 1 131265544.348 1      2623.684          39.000  
R 3  23912193.789 8 128003904.803 3     -3755.613          31.000  
R 5  21060043.525 1 112577962.621 1       496.027          46.000  
G22  24001460.657 2 126128528.506 1      1312.708          33.000  
R 4  20685315.066 1 110768890.174 1     -2436.500          42.000  
G31  23845546.870 1 125309182.633 1      1992.295          42.000  
R18  20827253.613 4 111177223.568 2     -3215.309          36.000  
R20  23254600.199 4 124352772.911 2      3679.252          33.000  
G16  25580033.398 4 134423985.456 2     -2132.281          30.000  
R19  19632435.891 2 105020241.675 1       545.962          36.000  
> 2020  4 13 14 43 22.0010000  0 16                     
G 8  21506197.361 1 113015827.334 1      -426.287          46.000  
G10  23616028.274 1 124103059.247 1     -2284.225          42.000  
G32  21134594.180 1 111063041.228 1     -2271.661          50.000  
G14  20369246.538 1 107041109.158 1      -328.312          46.000  
G27  21477952.474 1 112867404.938 1     -2401.627          46.000  
G11  22710569.125 1 119344851.425 1      1966.469          40.000  
G 1  24978503.251 1 131262920.424 1      2623.936          38.000  
R 3  23912893.700 8 128007660.161 3     -3755.927          30.000  
R 5  21059950.751 1 112577466.769 1       495.630          46.000  
G22  24001210.420 4 126127215.509 2      1313.019          33.000  
R 4  20685770.011 1 110771326.878 1     -2436.829          42.000  
G31  23845168.287 1 125307190.177 1      1992.536          43.000  
R18  20827855.916 4 111180439.177 2     -3215.949          36.000  
R20  23253912.425 4 124349093.334 2      3680.192          33.000  
G16  25580439.752 4 134426117.420 2     -2131.322          31.000  
R19  19632333.999 2 105019696.101 1       544.830          36.000  
> 2020  4 13 14 43 23.0010000  0 16                     
G 8  21506278.636 1 113016253.905 1      -427.210          46.000  
G10  23616463.029 1 124105343.284 1     -2284.365          42.000  
G32  21135026.361 1 111065313.116 1     -2272.455          49.000  
G14  20369309.367 1 107041437.916 1      -329.547          46.000  
G27  21478409.399 1 112869806.890 1     -2402.733          46.000  
G11  22710194.530 1 119342885.093 1      1965.953          40.000  
G 1  24978004.070 2 131260296.403 1      2623.391          38.000  
R 3  23913593.750 4 128011415.271 3     -3755.104          30.000  
R 5  21059858.116 1 112576971.432 1       494.751          46.000  
G22  24000960.507 2 126125902.582 1      1312.842          33.000  
R 4  20686224.903 1 110773763.843 1     -2437.511          43.000  
G31  23844789.478 1 125305197.776 1      1991.988          43.000  
R18  20828458.306 4 111183655.448 2     -3217.417          36.000  
R20  23253224.677 4 124345414.009 2      3678.760          33.000  
G16  25580844.955 4 134428249.117 2     -2131.901          31.000  
R19  19632231.933 2 105019151.283 1       544.489          36.000  
> 2020  4 13 14 43 24.0010000  0 16                     
G 8  21506359.945 1 113016681.038 1      -427.575          46.000  
G10  23616897.487 1 124107627.180 1     -2283.987          42.000  
G32  21135458.638 1 111067585.405 1     -2272.760          50.000  
G14  20369372.232 1 107041767.245 1      -329.879          46.000  
G27  21478866.368 1 112872209.258 1     -2402.653          46.000  
G11  22709820.013 1 119340918.941 1      1965.822          40.000  
G 1  24977504.645 2 131257672.122 1      2624.223          38.000  
R 3  23914293.120 4 128015170.114 3     -3754.830          29.000  
R 5  21059765.430 1 112576476.514 1       494.428          46.000  
G22  24000710.498 2 126124589.651 1      1312.885          34.000  
R 4  20686679.813 1 110776200.984 1     -2437.441          43.000  
G31  23844410.887 1 125303205.325 1      1992.278          43.000  
R18  20829060.836 4 111186872.268 2     -3217.377          36.000  
R20  23252536.798 4 124341734.663 2      3679.111          33.000  
G16  25581250.742 4 134430380.399 2     -2131.704          31.000  
R19  19632130.154 2 105018607.234 1       543.362          36.000  
> 2020  4 13 14 43 25.0010000  0 16                     
G 8  21506441.350 1 113017108.679 1      -428.151          46.000  
G10  23617332.067 1 124109910.869 1     -2283.901          42.000  
G32  21135891.273 1 111069858.011 1     -2273.071          50.000  
G14  20369434.983 1 107042097.083 1      -330.401          46.000  
G27  21479323.712 1 112874611.999 1     -2403.092          46.000  
G11  22709446.064 1 119338952.901 1      1965.592          40.000  
G 1  24977005.412 2 131255047.611 1      2624.594          38.000  
R 3  23914995.142 4 128018924.723 4     -3754.751          28.000  
R 5  21059672.813 1 112575981.923 1       494.128          46.000  
G22  24000460.375 2 126123276.642 1      1312.366          34.000  
R 4  20687135.141 1 110778638.213 1     -2437.744          43.000  
G31  23844032.034 1 125301212.760 1      1992.516          43.000  
R18  20829663.619 4 111190089.594 2     -3217.862          36.000  
R20  23251848.841 4 124338055.306 2      3678.979          33.000  
G16  25581656.189 4 134432511.246 2     -2131.419          31.000  
R19  19632028.358 2 105018063.817 1       543.018          36.000  
> 2020  4 13 14 43 26.0010000  0 16                     
G 8  21506523.008 1 113017537.047 1      -428.795          46.000  
G10  23617766.621 1 124112194.563 1     -2283.562          42.000  
G32  21136324.038 1 111072131.174 1     -2273.486          50.000  
G14  20369497.829 1 107042427.657 1      -330.938          46.000  
G27  21479781.213 1 112877015.353 1     -2403.667          46.000  
G11  22709071.975 1 119336987.193 1      1965.414          40.000  
G 1  24976505.978 1 131252423.076 1      2624.322          38.000  
R 3  23915696.449 4 128022679.208 4     -3754.697          27.000  
R 5  21059580.309 1 112575487.898 1       493.713          45.000  
G22  24000210.767 2 126121963.733 1      1313.043          34.000  
R 4  20687590.522 1 110781075.760 1     -2437.641          43.000  
G31  23843653.059 1 125299220.333 1      1992.079          43.000  
R18  20830266.419 4 111193307.603 2     -3218.089          35.000  
R20  23251160.901 4 124334376.179 2      3678.722          33.000  
G16  25582061.733 4 134434641.847 2     -2130.518          31.000  
R19  19631926.981 2 105017521.265 1       542.300          36.000  
> 2020  4 13 14 43 27.0010000  0 16                     
G 8  21506604.483 1 113017965.993 1      -429.012          46.000  
G10  23618201.053 1 124114478.120 1     -2282.779          42.000  
G32  21136756.681 1 111074404.729 1     -2273.547          50.000  
G14  20369560.956 1 107042758.819 1      -331.038          46.000  
G27  21480238.714 1 112879419.129 1     -2403.789          46.000  
G11  22708697.912 1 119335021.664 1      1965.867          41.000  
G 1  24976006.500 2 131249798.307 1      2625.129          38.000  
R 3  23916397.756 8 128026433.399 5     -3753.084          26.000  
R 5  21059487.962 1 112574994.312 1       493.750          46.000  
G22  23999961.360 2 126120650.803 1      1314.056          34.000  
R 4  20688045.912 1 110783513.503 1     -2437.395          43.000  
G31  23843273.988 1 125297227.848 1      1992.798          42.000  
R18  20830869.464 4 111196526.199 2     -3218.529          36.000  
R20  23250472.900 4 124330697.112 2      3678.392          33.000  
G16  25582467.459 4 134436772.073 2     -2129.829          31.000  
R19  19631825.709 2 105016979.440 1       542.378          36.000  
> 2020  4 13 14 43 28.0010000  0 16                     
G 8  21506686.377 1 113018395.109 1      -429.561          46.000  
G10  23618635.651 1 124116761.170 1     -2283.372          42.000  
G32  21137189.150 1 111076678.269 1     -2274.017          50.000  
G14  20369623.907 1 107043090.148 1      -331.781          46.000  
G27  21480695.979 1 112881822.937 1     -2404.224          46.000  
G11  22708323.919 1 119333055.904 1      1965.599          41.000  
G 1  24975507.058 2 131247172.944 1      2625.177          38.000  
R 3  23917096.550 9               9     -3752.861          25.000  
R 5  21059395.476 1 112574500.744 1       493.158          46.000  
G22  23999711.770 2 126119337.503 1      1313.165          35.000  
R 4  20688500.909 1 110785951.019 1     -2437.721          43.000  
G31  23842894.733 1 125295234.926 1      1992.623          42.000  
R18  20831472.299 4 111199744.924 2     -3219.185          35.000  
R20  23249784.716 4 124327017.662 2      3679.486          33.000  
G16  25582872.845 4 134438901.519 2     -2129.369          32.000  
R19  19631724.437 2 105016437.901 1       541.014          36.000  
> 2020  4 13 14 43 29.0010000  0 16                     
G 8  21506768.219 1 113018825.224 1      -430.664          46.000  
G10  23619070.074 1 124119044.471 1     -2283.571          42.000  
G32  21137621.898 1 111078952.618 1     -2274.719          50.000  
G14  20369686.763 1 107043422.470 1      -332.760          46.000  
G27  21481153.341 1 112884227.607 1     -2405.257          46.000  
G11  22707950.135 1 119331090.768 1      1964.845          41.000  
G 1  24975007.571 2 131244547.794 1      2625.107          38.000  
R 3  23917797.621 9               9     -3755.122          24.000  
R 5  21059303.453 1 112574008.035 1       492.383          46.000  
G22  23999462.834 2 126118024.528 1      1313.458          35.000  
R 4  20688956.307 1 110788389.131 1     -2438.434          43.000  
G31  23842515.174 1 125293242.376 1      1992.624          42.000  
R18  20832075.919 4 111202964.631 2     -3219.875          36.000  
R20  23249096.523 4 124323338.753 2      3678.340          33.000  
G16  25583278.344 4 134441030.915 2     -2128.570          31.000  
R19  19631623.191 2 105015897.504 1       539.769          36.000  
> 2020  4 13 14 43 30.0010000  0 16                     
G 8  21506850.078 1 113019256.244 1      -431.479          46.000  
G10  23619504.803 1 124121327.981 1     -2283.735          42.000  
G32  21138055.021 1 111081227.708 1     -2275.446          50.000  
G14  20369749.758 1 107043755.716 1      -333.613          46.000  
G27  21481611.051 1 112886633.043 1     -2405.826          46.000  
G11  22707576.413 1 119329126.123 1      1964.655          41.000  
G 1  24974508.111 2 131241922.793 1      2625.009          38.000  
R 3  23918498.064 9               9     -3755.846          22.000  
R 5  21059211.280 1 112573516.094 1       491.541          46.000  
G22  23999213.758 2 126116711.957 1      1312.115          35.000  
R 4  20689411.845 1 110790827.756 1     -2438.893          43.000  
G31  23842135.937 1 125291250.144 1      1992.137          42.000  
R18  20832679.391 4 111206185.303 2     -3220.943          36.000  
R20  23248408.487 4 124319660.227 2      3677.761          33.000  
G16  25583683.713 4 134443160.377 2     -2129.383          31.000  
R19  19631522.328 2 105015358.142 1       539.337          36.000  
> 2020  4 13 14 43 31.0010000  0 16                     
G 8  21506932.303 1 113019688.091 1      -432.303          46.000  
G10  23619939.235 1 124123611.618 1     -2283.746          42.000  
G32  21138487.830 1 111083503.449 1     -2276.050          50.000  
G14  20369812.928 1 107044089.802 1      -334.295          46.000  
G27  21482069.067 1 112889039.168 1     -2406.314          46.000  
G11  22707202.865 1 119327161.943 1      1963.898          41.000  
G 1  24974008.494 1 131239297.860 1      2624.941          38.000  
R 3  23919200.374 9               9     -3764.376          21.000  
R 5  21059119.388 1 112573024.812 1       490.997          46.000  
G22  23998964.630 2 126115399.582 1      1312.610          35.000  
R 4  20689867.453 1 110793266.817 1     -2439.487          43.000  
G31  23841756.630 1 125289258.134 1      1991.875          42.000  
R18  20833282.994 4 111209406.775 2     -3221.530          36.000  
R20  23247720.599 4 124315982.028 2      3677.811          33.000  
G16  25584088.889 4 134445289.708 2     -2130.132          31.000  
R19  19631421.658 2 105014819.820 1       537.702          36.000  
> 2020  4 13 14 43 32.0010000  0 16                     
G 8  21507014.703 1 113020120.654 1      -432.977          47.000  
G10  23620373.640 2 124125895.246 1     -2283.514          42.000  
G32  21138920.892 1 111085779.737 1     -2276.453          50.000  
G14  20369876.578 1 107044424.614 1      -334.927          46.000  
G27  21482526.935 1 112891445.894 1     -2407.017          46.000  
G11  22706829.290 1 119325198.076 1      1963.651          41.000  
G 1  24973509.095 2 131236672.867 1      2624.917          38.000  
R 3  23919903.103 9               9     -3764.807          19.000  
R 5  21059027.608 1 112572534.097 1       490.466          46.000  
G22  23998715.371 2 126114087.360 1      1312.030          35.000  
R 4  20690323.235 1 110795706.198 1     -2439.374          43.000  
G31  23841377.411 1 125287266.217 1      1991.912          42.000  
R18  20833886.563 4 111212628.981 2     -3222.762          36.000  
R20  23247032.808 4 124312304.080 2      3677.685          33.000  
G16  25584490.367 8 134447418.712 3     -2128.254          31.000  
R19  19631321.145 2 105014282.331 1       537.155          36.000  
> 2020  4 13 14 43 33.0010000  0 16                     
G 8  21507097.103 1 113020553.712 1      -433.664          46.000  
G10  23620808.020 1 124128178.658 1     -2283.497          41.000  
G32  21139354.137 1 111088056.338 1     -2277.020          50.000  
G14  20369940.158 1 107044759.926 1      -335.767          46.000  
G27  21482984.706 1 112893852.958 1     -2407.459          46.000  
G11  22706455.873 1 119323234.322 1      1963.306          41.000  
G 1  24973009.626 1 131234047.608 1      2624.626          38.000  
R 3  23920604.681 9               9     -3744.568          18.000  
R 5  21058935.872 1 112572043.707 1       489.899          46.000  
G22  23998466.095 2 126112775.033 1      1312.030          35.000  
R 4  20690778.843 1 110798145.709 1     -2439.723          43.000  
G31  23840998.165 1 125285274.192 1      1991.653          42.000  
R18  20834490.209 4 111215851.624 2     -3223.152          36.000  
R20  23246345.225 4 124308626.055 2      3678.140          32.000  
G16  25584888.380 8 134449547.334 3     -2129.126          30.000  
R19  19631220.588 2 105013745.499 1       536.170          36.000  
> 2020  4 13 14 43 34.0010000  0 16                     
G 8  21507180.070 1 113020987.717 1      -434.378          46.000  
G10  23621242.478 1 124130462.313 1     -2283.947          41.000  
G32  21139787.662 1 111090333.703 1     -2277.557          50.000  
G14  20370004.252 1 107045096.195 1      -336.560          46.000  
G27  21483442.783 1 112896260.831 1     -2408.039          46.000  
G11  22706082.473 1 119321271.117 1      1962.956          41.000  
G 1  24972509.878 1 131231422.493 1      2625.158          38.000  
R 3  23921306.144 9               9     -3750.698          17.000  
R 5  21058844.294 1 112571554.130 1       489.282          46.000  
G22  23998216.984 2 126111463.056 1      1311.829          34.000  
R 4  20691234.511 1 110800585.770 1     -2440.259          43.000  
G31  23840618.946 1 125283282.485 1      1991.638          42.000  
R18  20835094.170 4 111219075.218 2     -3223.360          36.000  
R20  23245657.399 4 124304948.523 2      3676.885          32.000  
G16  25585295.956 8 134451675.882 3     -2128.176          30.000  
R19  19631120.450 2 105013209.744 1       535.525          36.000  
> 2020  4 13 14 43 35.0010000  0 16                     
G 8  21507262.767 1 113021422.553 1      -435.315          46.000  
G10  23621677.250 1 124132746.124 1     -2284.742          41.000  
G32  21140220.855 1 111092611.730 1     -2278.369          50.000  
G14  20370068.495 1 107045433.309 1      -337.700          46.000  
G27  21483901.043 1 112898669.417 1     -2409.027          46.000  
G11  22705708.882 1 119319308.358 1      1962.244          41.000  
G 1  24972010.366 2 131228797.451 1      2624.824          38.000  
R 3  23922006.334 9               9     -3748.956          16.000  
R 5  21058753.003 1 112571065.249 1       488.458          46.000  
G22  23997967.594 2 126110151.347 1      1311.530          34.000  
R 4  20691690.329 1 110803026.246 1     -2440.743          43.000  
G31  23840239.500 1 125281291.025 1      1991.098          42.000  
R18  20835698.227 4 111222299.704 2     -3224.971          36.000  
R20  23244969.633 4 124301271.235 2      3677.518          32.000  
G16  25585703.549 4 134453804.367 2     -2128.506          30.000  
R19  19631020.652 2 105012674.997 1       534.242          36.000  
> 2020  4 13 14 43 36.0010000  0 16                     
G 8  21507345.394 1 113021858.138 1      -435.864          46.000  
G10  23622111.830 1 124135029.901 1     -2283.852          41.000  
G32  21140654.641 1 111094890.319 1     -2278.864          50.000  
G14  20370132.930 1 107045771.179 1      -338.325          46.000  
G27  21484359.461 1 112901078.609 1     -2409.456          46.000  
G11  22705335.342 1 119317345.956 1      1962.076          41.000  
G 1  24971511.132 2 131226172.388 1      2624.976          38.000  
R 3  23922707.118 9               9     -3729.039          15.000  
R 5  21058661.869 1 112570576.978 1       487.921          46.000  
G22  23997718.335 2 126108839.775 1      1311.359          34.000  
R 4  20692146.163 1 110805467.074 1     -2440.974          43.000  
G31  23839860.071 1 125279299.675 1      1991.177          42.000  
R18  20836302.641 2 111225524.927 1     -3225.720          36.000  
R20  23244281.929 4 124297594.226 2      3677.309          32.000  
G16  25586107.819 4 134455932.596 2     -2127.731          30.000  
R19  19630921.046 2 105012141.149 1       533.256          36.000  
> 2020  4 13 14 43 37.0010000  0 16                     
G 8  21507428.491 1 113022294.322 1      -436.060          46.000  
G10  23622546.349 2 124137313.564 1     -2283.063          41.000  
G32  21141088.480 1 111097169.310 1     -2278.888          50.000  
G14  20370197.583 1 107046109.621 1      -338.296          46.000  
G27  21484818.122 1 112903488.235 1     -2409.471          46.000  
G11  22704961.978 1 119315383.732 1      1962.163          41.000  
G 1  24971011.655 2 131223547.145 1      2625.321          38.000  
R 3  23923405.755 9               9     -3747.131          14.000  
R 5  21058570.552 1 112570089.135 1       487.891          46.000  
G22  23997468.780 2 126107528.171 1      1311.896          35.000  
R 4  20692602.094 1 110807908.088 1     -2440.741          43.000  
G31  23839480.939 1 125277308.304 1      1991.674          42.000  
R18  20836907.003 4 111228750.684 2     -3226.054          37.000  
R20  23243594.129 4 124293917.258 2      3676.989          32.000  
G16  25586514.871 4 134458060.454 2     -2127.631          30.000  
R19  19630821.615 2 105011608.010 1       533.170          37.000  
> 2020  4 13 14 43 38.0010000  0 16                     
G 8  21507511.773 1 113022730.648 1      -436.587          47.000  
G10  23622980.755 1 124139596.658 1     -2282.936          42.000  
G32  21141522.467 1 111099448.265 1     -2279.163          50.000  
G14  20370261.992 1 107046448.225 1      -338.882          46.000  
G27  21485276.627 1 112905897.880 1     -2409.881          46.000  
G11  22704588.386 1 119313421.252 1      1962.678          41.000  
G 1  24970512.142 2 131220921.224 1      2626.188          38.000  
R 3  23924106.049 9               9     -3758.374          15.000  
R 5  21058479.139 1 112569601.284 1       487.634          46.000  
G22  23997219.434 2 126106216.143 1      1312.128          35.000  
R 4  20693057.832 1 110810348.847 1     -2440.673          43.000  
G31  23839101.929 1 125275316.453 1      1991.980          42.000  
R18  20837511.217 4 111231976.540 2     -3226.162          36.000  
R20  23242906.547 4 124290239.937 2      3677.258          32.000  
G16  25586921.077 4 134460187.526 2     -2127.270          30.000  
R19  19630722.053 2 105011075.139 1       532.484          37.000  
> 2020  4 13 14 43 39.0010000  0 16                     
G 8  21507595.001 1 113023167.894 1      -437.773          46.000  
G10  23623415.239 1 124141879.986 1     -2283.443          41.000  
G32  21141956.192 1 111101727.960 1     -2280.206          50.000  
G14  20370326.776 1 107046787.759 1      -340.094          46.000  
G27  21485735.820 1 112908308.306 1     -2410.906          46.000  
G11  22704214.750 1 119311459.345 1      1961.451          40.000  
G 1  24970012.220 1 131218295.514 1      2625.650          38.000  
R 3  23924808.604 9               9     -3778.120          14.000  
R 5  21058387.944 1 112569114.205 1       486.701          46.000  
G22  23996969.765 2 126104904.450 1      1311.279          35.000  
R 4  20693514.060 1 110812790.153 1     -2441.646          43.000  
G31  23838722.779 1 125273324.937 1      1991.148          42.000  
R18  20838115.754 4 111235203.333 2     -3227.266          36.000  
R20  23242218.772 4 124286563.022 2      3676.563          32.000  
G16  25587325.870 8 134462314.518 3     -2126.685          30.000  
R19  19630622.717 2 105010543.355 1       531.382          37.000  
> 2020  4 13 14 43 40.0010000  0 16                     
G 8  21507678.719 1 113023606.330 1      -438.835          47.000  
G10  23623849.837 1 124144163.774 1     -2283.892          42.000  
G32  21142390.091 1 111104008.669 1     -2281.061          50.000  
G14  20370391.909 1 107047128.482 1      -341.199          46.000  
G27  21486194.892 1 112910719.765 1     -2411.744          47.000  
G11  22703841.202 1 119309498.199 1      1960.860          40.000  
G 1  24969512.664 2 131215670.174 1      2625.622          38.000  
R 3  23925507.869 9               9     -3741.762          14.000  
R 5  21058296.994 1 112568628.151 1       485.699          46.000  
G22  23996720.401 2 126103593.371 1      1310.516          35.000  
R 4  20693970.252 1 110815232.242 1     -2442.218          43.000  
G31  23838343.830 1 125271333.977 1      1990.883          42.000  
R18  20838720.500 4 111238431.304 2     -3228.863          36.000  
R20  23241531.417 4 124282886.834 3      3675.667          32.000  
G16  25587730.846 4 134464441.772 3     -2127.542          30.000  
R19  19630523.460 2 105010012.910 1       529.844          36.000  
> 2020  4 13 14 43 41.0010000  0 16                     
G 8  21507762.358 1 113024045.501 1      -439.305          47.000  
G10  23624284.600 1 124146447.626 1     -2283.973          41.000  
G32  21142824.087 1 111106289.948 1     -2281.445          50.000  
G14  20370457.120 1 107047469.970 1      -341.707          46.000  
G27  21486653.981 1 112913131.875 1     -2412.362          47.000  
G11  22703467.567 1 119307537.436 1      1960.685          40.000  
G 1  24969013.134 2 131213044.839 1      2625.808          38.000  
R 3  23926207.980 9               9     -3754.510          16.000  
R 5  21058205.965 1 112568142.700 1       485.364          46.000  
G22  23996470.854 2 126102282.425 1      1310.968          35.000  
R 4  20694426.226 1 110817674.682 1     -2442.596          43.000  
G31  23837964.907 1 125269343.178 1      1990.840          42.000  
R18  20839325.167 4 111241660.027 2     -3228.630          36.000  
R20  23240843.922 4 124279210.872 3      3676.030          32.000  
G16  25588136.773 8 134466568.739 3     -2126.254          30.000  
R19  19630424.326 2 105009483.361 1       529.026          36.000  
> 2020  4 13 14 43 42.0010000  0 16                     
G 8  21507845.997 1 113024485.465 1      -440.255          47.000  
G10  23624719.573 1 124148731.535 1     -2283.594          42.000  
G32  21143258.484 1 111108571.844 1     -2282.062          50.000  
G14  20370521.974 1 107047812.262 1      -342.618          46.000  
G27  21487113.637 1 112915544.607 1     -2412.849          47.000  
G11  22703094.115 1 119305577.055 1      1960.412          40.000  
G 1  24968513.412 2 131210419.516 1      2625.903          38.000  
R 3  23926908.825 9               9     -3758.680          18.000  
R 5  21058115.119 1 112567657.886 1       484.808          46.000  
G22  23996221.552 2 126100971.680 1      1311.115          35.000  
R 4  20694882.488 1 110820117.519 1     -2442.958          43.000  
G31  23837585.749 1 125267352.552 1      1990.859          42.000  
R18  20839930.315 4 111244889.554 2     -3229.515          36.000  
R20  23240156.636 4 124275535.126 3      3675.856          32.000  
G16  25588542.700 8 134468695.636 3     -2126.517          31.000  
R19  19630325.557 2 105008954.739 1       528.358          36.000  
> 2020  4 13 14 43 43.0010000  0 16                     
G 8  21507929.801 1 113024926.022 1      -440.667          47.000  
G10  23625154.424 1 124151015.357 1     -2283.786          42.000  
G32  21143692.471 1 111110854.177 1     -2282.355          50.000  
G14  20370587.281 1 107048155.170 1      -343.174          46.000  
G27  21487573.267 1 112917957.831 1     -2413.253          47.000  
G11  22702720.689 1 119303616.902 1      1960.264          40.000  
G 1  24968013.323 2 131207794.072 1      2625.706          38.000  
R 3  23927610.236 9               9     -3749.989          20.000  
R 5  21058024.613 1 112567173.559 1       484.003          46.000  
G22  23995972.371 2 126099660.967 1      1310.400          35.000  
R 4  20695338.820 1 110822560.600 1     -2442.912          43.000  
G31  23837206.852 1 125265361.942 1      1990.797          42.000  
R18  20840535.026 4 111248119.720 2     -3229.907          36.000  
R20  23239469.028 4 124271859.548 2      3676.124          32.000  
G16  25588944.578 8 134470822.128 2     -2125.922          31.000  
R19  19630227.016 2 105008426.891 1       527.426          36.000  
> 2020  4 13 14 43 44.0010000  0 16                     
G 8  21508013.676 1 113025367.162 1      -441.731          47.000  
G10  23625589.109 1 124153299.050 1     -2284.195          42.000  
G32  21144126.824 1 111113136.900 1     -2283.258          50.000  
G14  20370652.667 1 107048498.644 1      -343.929          46.000  
G27  21488032.478 1 112920371.481 1     -2414.230          46.000  
G11  22702347.551 1 119301656.937 1      1959.610          40.000  
G 1  24967513.680 2 131205168.417 1      2625.178          38.000  
R 3  23928312.302 9               9     -3751.673          22.000  
R 5  21057934.160 1 112566689.637 1       483.423          46.000  
G22  23995722.920 2 126098350.224 1      1310.327          35.000  
R 4  20695794.812 1 110825003.829 1     -2443.507          43.000  
G31  23836828.000 1 125263371.275 1      1990.416          42.000  
R18  20841140.444 4 111251350.378 2     -3230.905          36.000  
R20  23238781.647 4 124268184.010 2      3675.747          32.000  
G16  25589346.108 8 134472948.248 2     -2126.150          30.000  
R19  19630128.536 2 105007899.731 1       526.434          36.000  
> 2020  4 13 14 43 45.0010000  0 16                     
G 8  21508097.751 1 113025809.044 1      -442.583          46.000  
G10  23626023.907 1 124155582.731 1     -2283.794          42.000  
G32  21144561.099 1 111115420.173 1     -2283.868          49.000  
G14  20370718.333 1 107048842.879 1      -345.043          46.000  
G27  21488491.550 1 112922785.711 1     -2414.813          46.000  
G11  22701974.902 1 119299697.307 1      1959.166          40.000  
G 1  24967013.827 1 131202542.696 1      2625.650          38.000  
R 3  23929014.708 9               9     -3753.218          24.000  
R 5  21057843.646 1 112566206.302 1       482.898          46.000  
G22  23995473.469 2 126097039.620 1      1310.657          34.000  
R 4  20696250.978 1 110827447.378 1     -2444.102          42.000  
G31  23836449.269 1 125261380.752 1      1989.999          42.000  
R18  20841745.957 4 111254581.821 2     -3232.520          37.000  
R20  23238094.466 4 124264508.680 2      3675.432          32.000  
G16  25589749.827 8 134475074.149 3     -2126.395          30.000  
R19  19630030.143 2 105007373.508 1       525.866          36.000  
> 2020  4 13 14 43 46.0010000  0 16                     
G 8  21508181.529 1 113026251.698 1      -443.149          46.000  
G10  23626458.732 1 124157866.484 1     -2283.832          42.000  
G32  21144995.810 1 111117704.043 1     -2284.344          50.000  
G14  20370784.059 1 107049187.879 1      -345.575          46.000  
G27  21488950.805 1 112925200.598 1     -2415.448          46.000  
G11  22701602.296 1 119297738.053 1      1959.254          40.000  
G 1  24966513.817 2 131199916.977 1      2625.412          38.000  
R 3  23929717.594 9 128097624.45915     -3751.971          27.000  
R 5  21057753.062 1 112565723.599 1       482.184          46.000  
G22  23995223.774 2 126095729.187 1      1310.303          34.000  
R 4  20696707.153 1 110829891.287 1     -2444.086          43.000  
G31  23836070.468 1 125259390.373 1      1990.155          42.000  
R18  20842351.506 4 111257813.965 2     -3232.380          37.000  
R20  23237407.058 4 124260833.673 2      3674.912          32.000  
G16  25590157.604 8 134477199.840 3     -2125.232          30.000  
R19  19629932.064 2 105006848.187 1       525.242          36.000  
> 2020  4 13 14 43 47.0010000  0 16                     
G 8  21508265.596 1 113026695.097 1      -443.522          46.000  
G10  23626893.242 1 124160150.228 1     -2283.546          42.000  
G32  21145430.705 1 111119988.454 1     -2284.631          50.000  
G14  20370849.768 1 107049533.614 1      -346.081          46.000  
G27  21489410.103 1 112927616.062 1     -2415.618          46.000  
G11  22701229.681 1 119295779.173 1      1958.704          41.000  
G 1  24966014.069 2 131197291.231 1      2625.838          38.000  
R 3  23930421.082 9 128101376.642 4     -3752.854          27.000  
R 5  21057662.844 1 112565241.453 1       481.982          46.000  
G22  23994973.817 2 126094418.930 1      1309.943          34.000  
R 4  20697163.589 1 110832335.578 1     -2444.448          42.000  
G31  23835691.825 1 125257400.107 1      1990.295          42.000  
R18  20842957.151 4 111261046.830 2     -3232.698          37.000  
R20  23236719.921 4 124257158.840 2      3675.570          32.000  
G16  25590567.030 8 134479325.326 3     -2125.145          30.000  
R19  19629834.072 2 105006323.809 1       523.728          36.000  
> 2020  4 13 14 43 48.0010000  0 16                     
G 8  21508349.976 1 113027138.831 1      -444.104          46.000  
G10  23627327.587 1 124162433.652 1     -2283.463          41.000  
G32  21145866.096 1 111122273.029 1     -2284.882          50.000  
G14  20370915.825 1 107049879.698 1      -346.501          46.000  
G27  21489869.664 1 112930031.730 1     -2415.892          46.000  
G11  22700857.276 1 119293820.225 1      1958.652          41.000  
G 1  24965514.234 2 131194665.048 1      2626.033          38.000  
R 3  23931124.483 8 128105128.124 4     -3751.489          27.000  
R 5  21057572.827 1 112564759.509 1       481.775          46.000  
G22  23994724.218 2 126093108.384 1      1310.663          34.000  
R 4  20697619.686 1 110834779.805 1     -2444.235          43.000  
G31  23835312.893 1 125255409.576 1      1990.446          42.000  
R18  20843562.761 2 111264280.050 2     -3233.089          37.000  
R20  23236032.644 4 124253483.910 2      3674.689          32.000  
G16  25590967.608 8 134481450.207 3     -2125.071          30.000  
R19  19629736.080 2 105005799.855 1       523.964          36.000  
> 2020  4 13 14 43 49.0010000  0 16                     
G 8  21508434.366 1 113027583.321 1      -445.067          46.000  
G10  23627761.966 1 124164717.120 1     -2283.901          41.000  
G32  21146301.174 1 111124558.195 1     -2285.645          50.000  
G14  20370982.032 1 107050226.552 1      -347.493          46.000  
G27  21490329.520 1 112932448.043 1     -2417.065          46.000  
G11  22700485.107 1 119291861.647 1      1958.044          41.000  
G 1  24965014.765 2 131192038.838 1      2626.327          38.000  
R 3  23931828.722 4 128108879.653 4     -3751.453          28.000  
R 5  21057483.037 1 112564278.210 1       480.609          46.000  
G22  23994474.331 2 126091798.034 1      1309.869          34.000  
R 4  20698076.192 1 110837224.430 1     -2445.091          43.000  
G31  23834933.988 1 125253419.219 1      1989.943          43.000  
R18  20844168.833 4 111267514.037 2     -3234.125          37.000  
R20  23235345.315 4 124249809.208 2      3674.390          32.000  
G16  25591368.614 8 134483574.837 3     -2123.895          29.000  
R19  19629638.464 2 105005276.844 1       522.755          36.000  
> 2020  4 13 14 43 50.0010000  0 16                     
G 8  21508519.243 1 113028028.955 1      -446.268          46.000  
G10  23628196.477 1 124167001.034 1     -2284.275          41.000  
G32  21146736.435 1 111126844.335 1     -2286.780          50.000  
G14  20371048.543 1 107050574.584 1      -348.808          46.000  
G27  21490789.543 1 112934865.363 1     -2418.034          46.000  
G11  22700112.824 1 119289903.848 1      1957.296          41.000  
G 1  24964514.982 2 131189413.051 1      2625.355          38.000  
R 3  23932532.376 4 128112631.454 3     -3751.714          28.000  
R 5  21057393.352 1 112563797.890 1       479.681          46.000  
G22  23994224.636 2 126090488.251 1      1309.119          34.000  
R 4  20698532.768 1 110839669.781 1     -2445.920          43.000  
G31  23834555.946 1 125251429.412 1      1989.311          42.000  
R18  20844775.010 2 111270749.228 2     -3236.211          37.000  
R20  23234658.003 4 124246135.137 2      3673.728          32.000  
G16  25591771.993 8 134485699.696 3     -2124.387          29.000  
R19  19629540.821 2 105004755.165 1       520.810          36.000  
> 2020  4 13 14 43 51.0010000  0 16                     
G 8  21508604.374 1 113028475.463 1      -447.225          46.000  
G10  23628630.760 1 124169285.093 1     -2284.623          41.000  
G32  21147171.817 1 111129131.173 1     -2287.439          50.000  
G14  20371114.906 1 107050923.495 1      -349.634          47.000  
G27  21491249.871 1 112937283.418 1     -2418.790          46.000  
G11  22699740.288 1 119287946.530 1      1956.793          41.000  
G 1  24964015.592 2 131186787.330 1      2625.578          39.000  
R 3  23933234.782 4 128116383.374 3     -3751.881          29.000  
R 5  21057304.068 1 112563318.292 1       478.961          46.000  
G22  23993974.609 2 126089178.750 1      1308.838          33.000  
R 4  20698989.711 1 110842115.613 1     -2446.422          43.000  
G31  23834177.774 1 125249439.861 1      1989.176          42.000  
R18  20845381.675 4 111273985.230 2     -3237.119          37.000  
R20  23233970.857 4 124242461.474 2      3673.140          32.000  
G16  25592178.383 4 134487824.512 3     -2124.995          29.000  
R19  19629443.344 2 105004234.494 1       519.810          36.000  
> 2020  4 13 14 43 52.0010000  0 16                     
G 8  21508689.531 1 113028922.714 1      -447.716          46.000  
G10  23629064.957 1 124171569.239 1     -2284.691          41.000  
G32  21147607.052 1 111131418.565 1     -2287.714          50.000  
G14  20371181.444 1 107051273.160 1      -350.105          47.000  
G27  21491710.234 1 112939702.074 1     -2418.746          47.000  
G11  22699368.214 1 119285989.564 1      1956.868          41.000  
G 1  24963516.254 2 131184161.617 1      2626.033          39.000  
R 3  23933938.209 4 128120135.220 3     -3751.807          29.000  
R 5  21057214.801 1 112562839.286 1       478.607          46.000  
G22  23993724.783 2 126087869.426 1      1308.472          33.000  
R 4  20699446.427 1 110844561.783 1     -2446.474          43.000  
G31  23833799.462 1 125247450.441 1      1989.318          42.000  
R18  20845987.992 2 111277221.946 1     -3237.542          37.000  
R20  23233283.929 4 124238788.025 2      3673.467          32.000  
G16  25592581.701 4 134489949.027 3     -2124.422          29.000  
R19  19629346.085 2 105003714.689 1       519.285          36.000  
> 2020  4 13 14 43 53.0010000  0 16                     
G 8  21508774.741 1 113029370.567 1      -447.839          46.000  
G10  23629499.816 2 124173853.211 1     -2284.194          41.000  
G32  21148042.304 1 111133706.400 1     -2287.933          50.000  
G14  20371248.174 1 107051623.437 1      -350.432          47.000  
G27  21492171.007 1 112942121.218 1     -2419.298          47.000  
G11  22698996.071 1 119284032.827 1      1956.851          41.000  
G 1  24963016.471 2 131181535.726 1      2626.819          38.000  
R 3  23934639.219 4 128123886.932 3     -3751.751          29.000  
R 5  21057125.325 1 112562360.755 1       478.394          46.000  
G22  23993475.001 4 126086560.026 2      1310.181          33.000  
R 4  20699903.247 1 110847008.174 1     -2446.158          43.000  
G31  23833421.141 1 125245461.038 1      1989.595          42.000  
R18  20846594.762 2 111280459.296 1     -3237.573          37.000  
R20  23232596.949 4 124235114.662 2      3672.969          32.000  
G16  25592985.578 4 134492073.259 2     -2123.816          28.000  
R19  19629249.123 2 105003195.647 1       519.080          36.000  
> 2020  4 13 14 43 54.0010000  0 16                     
G 8  21508860.160 1 113029818.938 1      -448.941          46.000  
G10  23629934.763 2 124176137.027 1     -2284.528          41.000  
G32  21148477.539 1 111135994.548 1     -2288.550          50.000  
G14  20371314.833 1 107051974.220 1      -351.316          46.000  
G27  21492631.771 1 112944540.719 1     -2420.101          47.000  
G11  22698623.928 1 119282076.194 1      1956.206          41.000  
G 1  24962516.487 1 131178909.580 1      2625.909          38.000  
R 3  23935340.203 4 128127638.192 3     -3751.319          29.000  
R 5  21057035.910 1 112561882.567 1       477.777          46.000  
G22  23993225.244 4 126085250.641 2      1309.814          33.000  
R 4  20700360.042 1 110849454.697 1     -2446.970          43.000  
G31  23833042.873 1 125243471.517 1      1988.957          42.000  
R18  20847201.367 2 111283697.096 2     -3237.949          38.000  
R20  23231909.777 4 124231441.279 2      3672.975          31.000  
G16  25593390.903 4 134494197.064 3     -2123.699          28.000  
R19  19629152.170 2 105002677.250 1       517.898          36.000  
> 2020  4 13 14 43 55.0010000  0 16                     
G 8  21508945.526 1 113030268.002 1      -448.875          46.000  
G10  23630369.361 1 124178420.830 1     -2283.765          41.000  
G32  21148912.808 1 111138283.252 1     -2288.483          50.000  
G14  20371381.406 1 107052325.731 1      -351.393          46.000  
G27  21493092.309 1 112946960.797 1     -2420.010          47.000  
G11  22698251.566 1 119280119.887 1      1956.788          41.000  
G 1  24962016.861 1 131176283.366 1      2626.702          38.000  
R 3  23936041.353 4 128131389.344 3     -3750.970          28.000  
R 5  21056946.678 1 112561404.963 1       477.808          46.000  
G22  23992975.654 4 126083941.355 2      1309.247          33.000  
R 4  20700817.185 1 110851901.549 1     -2446.685          43.000  
G31  23832664.037 1 125241482.095 1      1989.938          42.000  
R18  20847808.154 2 111286935.664 1     -3238.521          38.000  
R20  23231222.849 4 124227768.115 2      3673.586          31.000  
G16  25593790.434 4 134496320.548 3     -2123.102          28.000  
R19  19629055.426 2 105002159.750 1       517.264          36.000  
> 2020  4 13 14 43 56.0010000  0 16                     
G 8  21509031.137 1 113030717.767 1      -450.196          46.000  
G10  23630803.923 1 124180704.558 1     -2283.748          41.000  
G32  21149348.052 1 111140572.438 1     -2289.508          49.000  
G14  20371447.717 1 107052677.913 1      -352.545          46.000  
G27  21493552.837 1 112949381.409 1     -2420.795          47.000  
G11  22697879.178 1 119278163.877 1      1955.815          41.000  
G 1  24961517.244 1 131173657.070 1      2626.425          38.000  
R 3  23936741.743 4 128135140.348 3     -3751.284          28.000  
R 5  21056857.438 1 112560927.891 1       476.929          46.000  
G22  23992726.055 4 126082632.126 2      1309.259          33.000  
R 4  20701274.232 1 110854348.660 1     -2447.168          43.000  
G31  23832285.141 1 125239492.747 1      1989.289          42.000  
R18  20848415.073 2 111290174.854 1     -3239.489          38.000  
R20  23230536.000 4 124224095.150 2      3672.963          32.000  
G16  25594197.783 2 134498443.777 2     -2122.831          28.000  
R19  19628958.691 2 105001643.041 1       516.080          36.000  
> 2020  4 13 14 43 57.0010000  0 16                     
G 8  21509116.966 1 113031168.216 1      -450.757          46.000  
G10  23631238.599 1 124182988.282 1     -2283.283          41.000  
G32  21149783.339 1 111142862.131 1     -2289.734          49.000  
G14  20371514.865 1 107053030.815 1      -353.119          46.000  
G27  21494013.340 1 112951802.576 1     -2421.230          47.000  
G11  22697507.140 1 119276208.169 1      1955.599          41.000  
G 1  24961017.444 2 131171030.724 1      2626.132          38.000  
R 3  23937441.776 2 128138891.178 3     -3750.671          28.000  
R 5  21056768.006 1 112560451.396 1       476.239          46.000  
G22  23992476.621 2 126081323.027 1      1308.954          33.000  
R 4  20701731.289 1 110856796.048 1     -2447.178          43.000  
G31  23831906.567 1 125237503.484 1      1989.270          42.000  
R18  20849022.245 2 111293414.780 1     -3240.438          38.000  
R20  23229849.290 4 124220422.385 3      3672.583          32.000  
G16  25594600.080 2 134500566.761 2     -2123.082          28.000  
R19  19628862.331 2 105001127.156 1       515.868          36.000  
> 2020  4 13 14 43 58.0010000  0 16                     
G 8  21509202.542 1 113031619.031 1      -451.376          46.000  
G10  23631672.988 1 124185271.708 1     -2283.591          41.000  
G32  21150218.887 1 111145152.033 1     -2290.314          49.000  
G14  20371582.031 1 107053384.081 1      -353.719          46.000  
G27  21494473.930 1 112954223.986 1     -2421.886          47.000  
G11  22697135.241 1 119274252.440 1      1955.497          41.000  
G 1  24960517.277 2 131168403.918 1      2626.266          38.000  
R 3  23938142.917 4 128142641.580 3     -3750.642          29.000  
R 5  21056678.757 1 112559975.082 1       475.946          46.000  
G22  23992227.101 4 126080013.700 2      1309.088          33.000  
R 4  20702188.598 1 110859243.399 1     -2447.604          43.000  
G31  23831527.758 1 125235513.976 1      1989.361          42.000  
R18  20849629.564 2 111296655.055 1     -3240.730          37.000  
R20  23229162.345 4 124216749.490 2      3672.000          32.000  
G16  25595002.989 2 134502689.085 2     -2122.103          28.000  
R19  19628766.014 2 105000611.778 1       515.697          36.000  
> 2020  4 13 14 43 59.0010000  0 16                     
G 8  21509288.597 1 113032070.791 1      -452.440          46.000  
G10  23632107.507 1 124187555.370 1     -2284.187          41.000  
G32  21150654.863 1 111147442.717 1     -2291.443          49.000  
G14  20371649.563 1 107053738.341 1      -355.148          46.000  
G27  21494935.130 1 112956646.229 1     -2423.104          47.000  
G11  22696763.647 1 119272297.306 1      1954.382          42.000  
G 1  24960017.599 2 131165777.352 1      2626.398          38.000  
R 3  23938840.202 4 128146392.151 3     -3750.844          29.000  
R 5  21056589.769 1 112559499.573 1       474.664          46.000  
G22  23991978.191 4 126078704.761 2      1308.417          33.000  
R 4  20702645.697 1 110861691.328 1     -2448.544          43.000  
G31  23831148.887 1 125233524.846 1      1988.448          42.000  
R18  20850236.719 4 111299896.269 2     -3242.020          37.000  
R20  23228475.557 4 124213077.062 3      3670.870          32.000  
G16  25595407.877 4 134504811.477 3     -2122.775          28.000  
R19  19628669.820 2 105000097.580 1       513.378          36.000  
> 2020  4 13 14 44  0.0010000  0 16                     
G 8  21509374.863 1 113032523.756 1      -453.518          46.000  
G10  23632542.105 1 124189839.508 1     -2284.402          41.000  
G32  21151090.997 1 111149734.409 1     -2292.133          49.000  
G14  20371717.070 1 107054093.772 1      -355.692          46.000  
G27  21495396.217 1 112959069.511 1     -2423.650          47.000  
G11  22696391.827 1 119270342.951 1      1954.115          42.000  
G 1  24959518.086 1 131163151.193 1      2626.293          38.000  
R 3  23939534.659 4 128150143.071 3     -3750.959          29.000  
R 5  21056500.712 1 112559025.078 1       474.072          46.000  
G22  23991729.525 4 126077396.405 2      1308.313          33.000  
R 4  20703102.902 1 110864140.076 1     -2448.956          43.000  
G31  23830770.567 1 125231536.286 1      1988.410          42.000  
R18  20850844.030 4 111303138.692 2     -3242.828          37.000  
R20  23227789.022 4 124209405.224 3      3672.398          32.000  
G16  25595812.932 2 134506934.130 2     -2123.135          29.000  
R19  19628573.809 2 104999584.685 1       512.250          36.000  
> 2020  4 13 14 44  1.0010000  0 16                     
G 8  21509461.189 1 113032977.492 1      -454.060          46.000  
G10  23632976.432 1 124192123.686 1     -2283.969          40.000  
G32  21151527.165 1 111152026.693 1     -2292.401          49.000  
G14  20371784.611 1 107054450.002 1      -356.502          46.000  
G27  21495857.252 1 112961493.439 1     -2424.265          47.000  
G11  22696020.277 1 119268388.996 1      1953.738          42.000  
G 1  24959018.356 2 131160525.051 1      2626.074          38.000  
R 3  23940236.219 4 128153893.946 3     -3750.825          29.000  
R 5  21056411.882 1 112558551.238 1       473.505          46.000  
G22  23991480.956 4 126076088.267 2      1308.002          33.000  
R 4  20703560.420 1 110866589.209 1     -2449.288          42.000  
G31  23830392.289 1 125229547.908 1      1988.219          42.000  
R18  20851451.428 4 111306381.841 2     -3242.951          37.000  
R20  23227102.539 4 124205733.754 2      3670.902          32.000  
G16  25596218.684 2 134509056.501 2     -2122.371          29.000  
R19  19628478.260 2 104999072.784 1       511.217          36.000  
> 2020  4 13 14 44  2.0010000  0 16                     
G 8  21509547.559 1 113033431.965 1      -454.776          46.000  
G10  23633410.977 1 124194407.926 1     -2283.934          40.000  
G32  21151963.752 1 111154319.524 1     -2292.828          50.000  
G14  20371852.457 1 107054806.954 1      -356.881          46.000  
G27  21496318.453 1 112963917.953 1     -2424.644          46.000  
G11  22695648.910 1 119266435.395 1      1953.411          42.000  
G 1  24958518.712 1 131157898.860 1      2626.389          38.000  
R 3  23940935.266 8 128157644.642 3     -3749.531          30.000  
R 5  21056323.182 1 112558077.983 1       473.224          46.000  
G22  23991232.604 2 126074780.235 1      1308.081          33.000  
R 4  20704018.070 1 110869038.683 1     -2449.389          42.000  
G31  23830013.672 1 125227559.629 1      1988.428          42.000  
R18  20852058.687 4 111309625.728 2     -3243.506          36.000  
R20  23226415.986 4 124202062.463 2      3671.546          32.000  
G16  25596625.414 2 134511178.742 2     -2122.497          29.000  
R19  19628382.642 2 104998561.692 1       510.999          36.000  
> 2020  4 13 14 44  3.0010000  0 16                     
G 8  21509634.024 1 113033887.038 1      -455.132          46.000  
G10  23633845.296 2 124196692.033 1     -2283.620          40.000  
G32  21152400.287 1 111156612.797 1     -2293.237          50.000  
G14  20371920.504 1 107055164.549 1      -357.781          46.000  
G27  21496779.740 1 112966342.933 1     -2425.085          46.000  
G11  22695277.351 1 119264481.990 1      1953.474          42.000  
G 1  24958019.147 2 131155272.497 1      2626.683          38.000  
R 3  23941635.988 4 128161395.289 3     -3750.550          29.000  
R 5  21056234.561 1 112557605.219 1       472.693          46.000  
G22  23990983.982 4 126073472.245 2      1308.392          34.000  
R 4  20704475.876 1 110871488.366 1     -2449.701          42.000  
G31  23829635.264 1 125225571.365 1      1988.442          42.000  
R18  20852666.295 4 111312870.235 2     -3244.700          36.000  
R20  23225729.468 4 124198391.288 3      3671.219          32.000  
G16  25597031.847 2 134513300.524 2     -2121.668          29.000  
R19  19628287.023 2 104998051.372 1       510.617          36.000  
> 2020  4 13 14 44  4.0010000  0 16                     
G 8  21509720.769 1 113034342.784 1      -456.262          46.000  
G10  23634279.841 2 124198976.122 1     -2284.291          40.000  
G32  21152836.786 1 111158906.548 1     -2294.128          50.000  
G14  20371988.979 1 107055522.800 1      -358.613          46.000  
G27  21497241.430 1 112968768.436 1     -2425.759          46.000  
G11  22694905.853 1 119262528.884 1      1952.852          42.000  
G 1  24957519.408 2 131152646.058 1      2626.460          38.000  
R 3  23942335.480 8 128165145.712 3     -3750.753          31.000  
R 5  21056146.010 1 112557132.957 1       471.887          46.000  
G22  23990735.404 2 126072164.329 2      1307.483          34.000  
R 4  20704933.351 1 110873938.276 1     -2450.160          42.000  
G31  23829257.004 1 125223583.152 1      1988.159          42.000  
R18  20853274.182 4 111316115.376 2     -3245.628          36.000  
R20  23225042.898 4 124194720.278 3      3671.427          32.000  
G16  25597437.704 2 134515422.096 2     -2121.930          29.000  
R19  19628191.867 2 104997541.909 1       509.156          36.000  
> 2020  4 13 14 44  5.0010000  0 16                     
G 8  21509807.733 1 113034799.216 1      -456.868          46.000  
G10  23634714.439 2 124201260.160 1     -2283.900          39.000  
G32  21153273.705 1 111161200.797 1     -2294.501          50.000  
G14  20372057.628 1 107055881.749 1      -359.324          46.000  
G27  21497702.953 1 112971194.496 1     -2426.503          46.000  
G11  22694534.329 1 119260576.049 1      1952.740          42.000  
G 1  24957019.608 2 131150019.516 1      2626.472          38.000  
R 3  23943035.068 8 128168895.960 3     -3750.501          31.000  
R 5  21056057.756 1 112556661.198 1       471.527          46.000  
G22  23990486.843 2 126070856.490 1      1307.599          34.000  
R 4  20705390.608 1 110876388.469 1     -2450.256          42.000  
G31  23828878.439 1 125221595.026 1      1988.048          42.000  
R18  20853882.148 4 111319361.157 2     -3246.214          37.000  
R20  23224356.642 4 124191049.445 2      3670.390          32.000  
G16  25597845.402 2 134517543.315 2     -2120.628          29.000  
R19  19628096.851 2 104997033.249 1       508.637          36.000  
> 2020  4 13 14 44  6.0010000  0 16                     
G 8  21509894.443 1 113035256.368 1      -457.651          46.000  
G10  23635148.487 2 124203544.254 1     -2284.531          39.000  
G32  21153710.370 1 111163495.600 1     -2295.221          50.000  
G14  20372126.155 1 107056241.428 1      -360.203          47.000  
G27  21498164.633 1 112973621.144 1     -2427.048          46.000  
G11  22694162.518 1 119258623.590 1      1951.862          42.000  
G 1  24956519.572 2 131147392.923 1      2626.853          38.000  
R 3  23943731.672 8 128172646.138 3     -3750.810          31.000  
R 5  21055969.562 1 112556190.007 1       470.770          46.000  
G22  23990238.378 2 126069548.804 1      1307.617          34.000  
R 4  20705847.952 1 110878839.019 1     -2450.814          42.000  
G31  23828500.258 1 125219607.015 1      1987.994          42.000  
R18  20854490.349 2 111322607.708 2     -3246.991          37.000  
R20  23223670.255 4 124187378.840 3      3670.282          32.000  
G16  25598247.699 2 134519664.330 2     -2120.533          29.000  
R19  19628001.886 2 104996525.486 1       507.305          36.000  
> 2020  4 13 14 44  7.0010000  0 16                     
G 8  21509981.371 1 113035714.145 1      -458.083          46.000  
G10  23635582.665 2 124205828.201 1     -2283.796          39.000  
G32  21154147.280 1 111165790.832 1     -2295.520          50.000  
G14  20372194.953 1 107056601.731 1      -360.864          47.000  
G27  21498626.898 1 112976048.248 1     -2427.494          46.000  
G11  22693790.793 1 119256671.313 1      1951.926          42.000  
G 1  24956019.536 2 131144766.184 1      2626.817          38.000  
R 3  23944433.860 8 128176395.964 3     -3748.755          31.000  
R 5  21055881.290 1 112555719.255 1       470.544          46.000  
G22  23989990.236 2 126068241.143 1      1307.513          35.000  
R 4  20706305.532 1 110881289.797 1     -2450.966          42.000  
G31  23828121.972 1 125217619.003 1      1988.178          42.000  
R18  20855098.707 2 111325854.822 2     -3247.660          37.000  
R20  23222983.886 4 124183708.354 3      3669.990          32.000  
G16  25598652.623 2 134521785.054 2     -2120.456          29.000  
R19  19627907.245 2 104996018.494 1       506.300          36.000  
> 2020  4 13 14 44  8.0010000  0 16                     
G 8  21510068.421 1 113036172.196 1      -458.235          46.000  
G10  23636016.617 2 124208111.718 1     -2283.357          39.000  
G32  21154584.103 1 111168086.128 1     -2295.343          50.000  
G14  20372263.724 1 107056962.280 1      -360.694          47.000  
G27  21499088.736 1 112978475.469 1     -2427.404          46.000  
G11  22693419.042 1 119254718.915 1      1952.394          42.000  
G 1  24955519.369 2 131142138.933 1      2627.411          38.000  
R 3  23945130.290 8 128180145.378 3     -3749.644          31.000  
R 5  21055793.149 1 112555248.631 1       470.447          46.000  
G22  23989741.954 2 126066933.110 1      1308.374          35.000  
R 4  20706763.024 1 110883740.415 1     -2450.371          42.000  
G31  23827743.791 1 125215630.650 1      1988.508          42.000  
R18  20855707.292 4 111329102.171 2     -3247.563          36.000  
R20  23222297.569 4 124180037.575 2      3671.365          32.000  
G16  25599058.140 2 134523905.038 2     -2119.954          29.000  
R19  19627812.552 2 104995511.892 1       505.945          37.000  
> 2020  4 13 14 44  9.0010000  0 16                     
G 8  21510155.699 1 113036630.812 1      -459.216          46.000  
G10  23636450.753 2 124210395.105 1     -2283.928          39.000  
G32  21155021.196 1 111170381.828 1     -2296.375          50.000  
G14  20372332.478 1 107057323.429 1      -361.902          47.000  
G27  21499551.097 1 112980903.132 1     -2428.412          47.000  
G11  22693047.623 1 119252766.722 1      1951.628          42.000  
G 1  24955019.403 1 131139511.484 1      2626.823          38.000  
R 3  23945831.012 8 128183894.524 3     -3750.515          31.000  
R 5  21055704.982 1 112554778.453 1       469.495          46.000  
G22  23989493.603 2 126065625.107 1      1307.605          35.000  
R 4  20707220.377 1 110886191.190 1     -2451.160          42.000  
G31  23827365.410 1 125213642.264 1      1987.889          42.000  
R18  20856316.139 4 111332350.130 2     -3248.782          37.000  
R20  23221610.920 4 124176366.872 2      3670.729          32.000  
G16  25599460.280 2 134526024.636 2     -2120.027          29.000  
R19  19627718.076 2 104995006.007 1       504.826          37.000  
> 2020  4 13 14 44 10.0010000  0 16                     
G 8  21510243.325 1 113037090.512 1      -460.126          46.000  
G10  23636885.132 2 124212678.873 1     -2284.155          39.000  
G32  21155458.097 1 111172678.444 1     -2297.058          50.000  
G14  20372401.458 1 107057685.693 1      -362.910          47.000  
G27  21500013.554 1 112983331.762 1     -2429.272          47.000  
G11  22692676.047 1 119250815.232 1      1951.402          42.000  
G 1  24954519.271 2 131136884.370 1      2627.184          38.000  
R 3  23946528.628 8 128187643.881 4     -3750.125          31.000  
R 5  21055617.024 1 112554309.250 1       468.744          46.000  
G22  23989245.286 2 126064317.600 1      1307.159          35.000  
R 4  20707677.930 1 110888642.663 1     -2451.785          42.000  
G31  23826987.307 1 125211654.349 1      1987.766          42.000  
R18  20856925.247 4 111335599.166 2     -3249.562          36.000  
R20  23220924.045 4 124172696.817 2      3669.313          32.000  
G16  25599864.131 2 134528144.341 2     -2119.655          29.000  
R19  19627623.775 2 104994501.373 1       503.668          37.000  
> 2020  4 13 14 44 11.0010000  0 16                     
G 8  21510330.986 1 113037551.050 1      -461.095          46.000  
G10  23637319.442 2 124214962.755 1     -2283.862          39.000  
G32  21155895.365 1 111174975.725 1     -2297.736          50.000  
G14  20372470.413 1 107058048.788 1      -363.549          46.000  
G27  21500475.906 1 112985761.084 1     -2429.605          47.000  
G11  22692304.558 1 119248864.197 1      1951.097          42.000  
G 1  24954019.156 2 131134257.316 1      2627.032          38.000  
R 3  23947225.511 8 128191393.172 3     -3748.634          31.000  
R 5  21055529.450 1 112553840.744 1       468.158          46.000  
G22  23988996.943 2 126063010.311 1      1307.306          36.000  
R 4  20708135.414 1 110891094.603 1     -2451.928          42.000  
G31  23826608.951 1 125209666.691 1      1987.437          42.000  
R18  20857534.033 2 111338849.024 1     -3250.302          36.000  
R20  23220239.508 4 124169027.022 2      3670.164          32.000  
G16  25600268.321 4 134530263.986 3     -2119.969          29.000  
R19  19627529.867 2 104993997.703 1       503.428          36.000  
> 2020  4 13 14 44 12.0010000  0 16                     
G 8  21510419.014 1 113038012.377 1      -461.719          46.000  
G10  23637753.865 2 124217246.742 1     -2283.745          39.000  
G32  21156332.772 1 111177273.628 1     -2298.181          50.000  
G14  20372539.551 1 107058412.700 1      -364.199          47.000  
G27  21500938.206 1 112988191.075 1     -2430.128          47.000  
G11  22691932.816 1 119246913.593 1      1950.437          41.000  
G 1  24953519.225 2 131131630.310 1      2627.319          38.000  
R 3  23947920.859 8 128195142.535 3     -3749.106          31.000  
R 5  21055441.920 1 112553372.860 1       467.883          46.000  
G22  23988749.185 2 126061703.284 1      1306.958          36.000  
R 4  20708593.194 1 110893546.993 1     -2452.528          42.000  
G31  23826230.631 1 125207679.225 1      1987.445          42.000  
R18  20858142.985 4 111342099.650 2     -3250.190          36.000  
R20  23219555.128 8 124165357.558 3      3669.749          32.000  
G16  25600672.468 2 134532383.402 2     -2119.570          29.000  
R19  19627436.011 2 104993495.007 1       502.320          36.000  
> 2020  4 13 14 44 13.0010000  0 16                     
G 8  21510507.303 1 113038474.398 1      -462.302          46.000  
G10  23638188.349 2 124219530.720 1     -2283.957          39.000  
G32  21156770.214 1 111179572.028 1     -2298.529          50.000  
G14  20372609.046 1 107058777.310 1      -364.769          46.000  
G27  21501400.715 1 112990621.617 1     -2430.734          47.000  
G11  22691561.336 1 119244963.267 1      1950.223          41.000  
G 1  24953019.294 2 131129003.247 1      2627.062          38.000  
R 3  23948621.869 8 128198891.802 3     -3749.925          32.000  
R 5  21055354.686 1 112552905.512 1       467.285          46.000  
G22  23988500.807 1 126060396.322 1      1307.123          36.000  
R 4  20709051.236 1 110895999.659 1     -2452.525          42.000  
G31  23825852.641 1 125205691.828 1      1987.606          42.000  
R18  20858752.102 4 111345351.007 2     -3251.373          36.000  
R20  23218868.348 4 124161688.325 2      3669.274          31.000  
G16  25601076.441 2 134534502.568 2     -2118.794          29.000  
R19  19627342.172 2 104992993.172 1       501.567          36.000  
> 2020  4 13 14 44 14.0010000  0 16                     
G 8  21510595.226 1 113038937.020 1      -462.906          46.000  
G10  23638622.406 2 124221814.563 1     -2283.459          39.000  
G32  21157207.970 1 111181870.857 1     -2298.999          50.000  
G14  20372678.306 1 107059142.534 1      -365.627          46.000  
G27  21501863.486 1 112993052.617 1     -2431.282          47.000  
G11  22691189.847 1 119243013.173 1      1949.572          41.000  
G 1  24952519.127 2 131126375.962 1      2627.452          37.000  
R 3  23949322.085 4 128202640.801 2     -3749.679          32.000  
R 5  21055267.461 1 112552438.613 1       466.626          46.000  
G22  23988252.543 1 126059089.379 1      1307.043          37.000  
R 4  20709509.435 1 110898452.498 1     -2452.941          42.000  
G31  23825474.469 1 125203704.433 1      1987.501          42.000  
R18  20859361.001 4 111348602.974 2     -3252.412          37.000  
R20  23218181.036 4 124158019.137 2      3669.253          31.000  
G16  25601477.569 4 134536621.426 3     -2119.290          30.000  
R19  19627248.465 2 104992492.074 1       500.541          36.000  
> 2020  4 13 14 44 15.0010000  0 16                     
G 8  21510683.533 1 113039400.378 1      -463.788          46.000  
G10  23639056.716 2 124224098.443 1     -2283.705          39.000  
G32  21157645.927 1 111184170.230 1     -2299.817          50.000  
G14  20372747.671 1 107059508.492 1      -366.710          46.000  
G27  21502326.414 1 112995484.199 1     -2432.032          47.000  
G11  22690818.724 1 119241063.392 1      1949.384          41.000  
G 1  24952019.265 2 131123748.686 1      2627.083          37.000  
R 3  23950022.615 4 128206389.712 2     -3749.726          32.000  
R 5  21055180.429 1 112551972.297 1       465.692          46.000  
G22  23988004.288 1 126057782.574 1      1306.268          36.000  
R 4  20709967.381 1 110900905.635 1     -2453.746          42.000  
G31  23825096.532 1 125201717.179 1      1986.892          42.000  
R18  20859970.223 4 111351855.670 2     -3253.670          36.000  
R20  23217496.438 4 124154350.204 2      3668.393          31.000  
G16  25601884.377 8 134538739.994 3     -2118.408          30.000  
R19  19627155.019 2 104991991.851 1       499.420          36.000  
> 2020  4 13 14 44 16.0010000  0 16                     
G 8  21510772.311 1 113039864.508 1      -464.508          46.000  
G10  23639491.261 1 124226382.365 1     -2283.870          39.000  
G32  21158083.334 1 111186470.189 1     -2300.275          50.000  
G14  20372817.140 1 107059875.212 1      -367.131          46.000  
G27  21502789.046 1 112997916.415 1     -2432.486          47.000  
G11  22690447.750 1 119239114.010 1      1949.199          41.000  
G 1  24951519.098 2 131121121.367 1      2627.197          37.000  
R 3  23950725.126 8 128210138.544 3     -3749.221          33.000  
R 5  21055093.710 1 112551506.598 1       465.289          46.000  
G22  23987755.910 1 126056475.921 1      1306.537          36.000  
R 4  20710425.764 1 110903359.141 1     -2453.570          43.000  
G31  23824718.526 1 125199730.063 1      1986.986          42.000  
R18  20860579.655 4 111355109.085 2     -3253.734          37.000  
R20  23216810.357 4 124150681.521 2      3668.870          31.000  
G16  25602284.642 8 134540858.376 3     -2118.512          30.000  
R19  19627061.582 2 104991492.513 1       499.450          36.000  
> 2020  4 13 14 44 17.0010000  0 16                     
G 8  21510860.661 1 113040329.414 1      -464.928          46.000  
G10  23639925.911 2 124228666.353 1     -2283.433          39.000  
G32  21158521.142 1 111188770.732 1     -2300.500          50.000  
G14  20372886.906 1 107060242.717 1      -367.503          46.000  
G27  21503251.860 1 113000349.254 1     -2432.826          47.000  
G11  22690077.099 1 119237165.014 1      1949.110          41.000  
G 1  24951018.827 2 131118494.061 1      2627.937          38.000  
R 3  23951424.199 4 128213887.298 2     -3748.540          33.000  
R 5  21055007.418 1 112551041.505 1       465.009          47.000  
G22  23987507.419 1 126055169.452 1      1306.750          36.000  
R 4  20710883.849 1 110905813.068 1     -2453.696          43.000  
G31  23824340.336 1 125197743.109 1      1987.247          42.000  
R18  20861189.304 2 111358363.253 2     -3253.861          37.000  
R20  23216124.371 4 124147013.092 2      3669.143          32.000  
G16  25602683.841 8 134542976.511 3     -2116.636          30.000  
R19  19626968.380 2 104990994.116 1       498.930          36.000  
> 2020  4 13 14 44 18.0010000  0 16                     
G 8  21510949.029 1 113040794.575 1      -465.271          46.000  
G10  23640360.622 2 124230949.885 1     -2283.588          39.000  
G32  21158958.506 1 111191071.353 1     -2300.745          50.000  
G14  20372956.943 1 107060610.482 1      -367.935          46.000  
G27  21503714.579 1 113002782.211 1     -2433.099          46.000  
G11  22689705.985 1 119235215.878 1      1949.060          41.000  
G 1  24950518.581 2 131115866.259 1      2628.063          37.000  
R 3  23952125.244 8 128217635.455 3     -3747.688          33.000  
R 5  21054920.717 1 112550576.518 1       464.819          46.000  
G22  23987258.936 2 126053862.685 1      1306.775          36.000  
R 4  20711342.301 1 110908266.814 1     -2453.615          43.000  
G31  23823962.128 1 125195755.819 1      1987.246          43.000  
R18  20861798.954 2 111361617.661 1     -3254.643          37.000  
R20  23215438.464 4 124143344.448 2      3668.782          32.000  
G16  25603083.294 8 134545094.103 3     -2118.571          30.000  
R19  19626875.231 2 104990496.161 1       497.632          36.000  
> 2020  4 13 14 44 19.0010000  0 16                     
G 8  21511037.580 1 113041260.019 1      -466.008          46.000  
G10  23640794.993 2 124233232.984 1     -2282.958          40.000  
G32  21159396.123 1 111193372.074 1     -2301.123          50.000  
G14  20373026.935 1 107060978.536 1      -368.586          46.000  
G27  21504177.464 1 113005215.307 1     -2433.333          46.000  
G11  22689335.238 1 119233266.624 1      1948.988          41.000  
G 1  24950018.336 2 131113237.951 1      2628.418          37.000  
R 3  23952828.654 4 128221383.109 2     -3747.882          33.000  
R 5  21054834.007 1 112550111.674 1       464.594          46.000  
G22  23987010.201 2 126052555.556 1      1307.080          36.000  
R 4  20711800.666 1 110910720.466 1     -2454.024          43.000  
G31  23823584.070 1 125193768.182 1      1987.388          43.000  
R18  20862408.891 4 111364872.309 2     -3255.296          37.000  
R20  23214752.260 4 124139675.567 3      3669.239          32.000  
G16  25603491.778 4 134547210.845 3     -2116.678          30.000  
R19  19626782.308 2 104989998.603 1       497.379          37.000  
> 2020  4 13 14 44 20.0010000  0 16                     
G 8  21511125.887 1 113041726.507 1      -466.946          46.000  
G10  23641229.809 1 124235516.422 1     -2283.816          40.000  
G32  21159834.245 1 111195673.659 1     -2301.813          50.000  
G14  20373097.111 1 107061347.652 1      -369.568          46.000  
G27  21504640.287 1 113007649.324 1     -2434.167          46.000  
G11  22688964.490 1 119231318.046 1      1948.476          41.000  
G 1  24949518.335 2 131110609.939 1      2628.024          37.000  
R 3  23953532.430 4 128225130.947 2     -3747.838          34.000  
R 5  21054747.183 1 112549647.756 1       463.654          46.000  
G22  23986761.605 2 126051248.926 1      1306.836          36.000  
R 4  20712259.049 1 110913174.754 1     -2454.610          43.000  
G31  23823205.958 1 125191780.995 1      1987.257          42.000  
R18  20863018.898 4 111368128.026 2     -3256.078          37.000  
R20  23214066.423 4 124136007.279 2      3668.162          32.000  
G16  25603904.092 4 134549327.778 3     -2117.183          30.000  
R19  19626689.630 2 104989502.299 1       495.783          37.000  
> 2020  4 13 14 44 21.0010000  0 16                     
G 8  21511215.093 1 113042193.774 1      -467.500          46.000  
G10  23641664.686 1 124237799.945 1     -2283.699          40.000  
G32  21160271.914 1 111197975.880 1     -2302.466          50.000  
G14  20373167.593 1 107061717.578 1      -370.071          46.000  
G27  21505103.494 1 113010084.003 1     -2434.857          46.000  
G11  22688594.014 1 119229369.886 1      1948.170          42.000  
G 1  24949018.543 2 131107981.944 1      2628.248          37.000  
R 3  23954231.407 4 128228878.783 2     -3748.004          34.000  
R 5  21054660.176 1 112549184.471 1       462.927          46.000  
G22  23986512.800 2 126049942.499 1      1306.311          36.000  
R 4  20712717.483 1 110915629.451 1     -2454.847          43.000  
G31  23822827.760 1 125189794.019 1      1987.042          42.000  
R18  20863629.220 4 111371384.546 2     -3256.572          37.000  
R20  23213380.272 4 124132339.199 2      3669.440          32.000  
G16  25604304.687 4 134551444.498 3     -2116.474          29.000  
R19  19626597.092 2 104989006.904 1       495.308          37.000  
> 2020  4 13 14 44 22.0010000  0 16                     
G 8  21511304.019 1 113042661.766 1      -468.815          46.000  
G10  23642099.222 1 124240083.475 1     -2284.263          40.000  
G32  21160709.880 1 111200278.624 1     -2303.552          50.000  
G14  20373238.214 1 107062088.237 1      -371.707          46.000  
G27  21505566.763 1 113012519.260 1     -2436.079          46.000  
G11  22688223.301 1 119227422.071 1      1946.959          42.000  
G 1  24948518.795 2 131105353.913 1      2627.369          37.000  
R 3  23954929.756 4 128232626.482 2     -3748.607          34.000  
R 5  21054573.379 1 112548721.725 1       461.884          46.000  
G22  23986264.143 2 126048636.193 1      1305.695          35.000  
R 4  20713175.866 1 110918084.489 1     -2455.989          43.000  
G31  23822449.683 1 125187807.141 1      1986.341          42.000  
R18  20864239.567 2 111374641.837 2     -3257.898          37.000  
R20  23212694.321 4 124128671.408 2      3667.983          32.000  
G16  25604709.280 4 134553560.972 2     -2116.603          29.000  
R19  19626504.501 2 104988512.406 1       494.000          37.000  
> 2020  4 13 14 44 23.0010000  0 16                     
G 8  21511393.251 1 113043130.416 1      -468.867          46.000  
G10  23642534.169 1 124242366.942 1     -2283.033          41.000  
G32  21161147.985 1 111202581.856 1     -2303.387          50.000  
G14  20373309.254 1 107062459.562 1      -371.597          46.000  
G27  21506030.328 1 113014955.029 1     -2435.885          46.000  
G11  22687852.772 1 119225474.513 1      1947.495          42.000  
G 1  24948018.751 2 131102725.763 1      2628.259          37.000  
R 3  23955629.292 4 128236373.977 2     -3746.839          34.000  
R 5  21054486.774 1 112548259.490 1       462.238          46.000  
G22  23986015.068 2 126047329.955 1      1306.281          35.000  
R 4  20713634.414 1 110920539.756 1     -2455.089          43.000  
G31  23822071.685 1 125185820.355 1      1986.749          42.000  
R18  20864849.618 4 111377899.750 2     -3258.618          37.000  
R20  23212008.510 4 124125003.840 2      3667.091          32.000  
G16  25605106.734 4 134555677.156 2     -2115.791          29.000  
R19  19626412.276 2 104988018.696 1       493.992          37.000  
> 2020  4 13 14 44 24.0010000  0 16                     
G 8  21511482.386 1 113043599.590 1      -469.417          46.000  
G10  23642968.697 1 124244650.260 1     -2283.182          41.000  
G32  21161586.491 1 111204885.424 1     -2303.668          50.000  
G14  20373380.285 1 107062831.413 1      -371.993          47.000  
G27  21506494.050 1 113017391.183 1     -2436.308          46.000  
G11  22687482.487 1 119223527.099 1      1947.515          42.000  
G 1  24947518.688 2 131100097.380 1      2628.671          37.000  
R 3  23956330.407 4 128240121.181 2     -3746.795          34.000  
R 5  21054400.622 1 112547797.646 1       461.737          46.000  
G22  23985765.957 2 126046023.648 1      1306.805          34.000  
R 4  20714092.831 1 110922995.135 1     -2455.242          42.000  
G31  23821693.504 1 125183833.465 1      1986.870          42.000  
R18  20865459.800 4 111381158.093 2     -3258.225          37.000  
R20  23211322.516 4 124121336.132 2      3667.797          32.000  
G16  25605507.060 2 134557792.906 2     -2115.083          29.000  
R19  19626320.139 2 104987525.679 1       492.853          36.000  
> 2020  4 13 14 44 25.0010000  0 16                     
G 8  21511571.862 1 113044069.530 1      -470.576          46.000  
G10  23643403.417 1 124246933.602 1     -2283.662          41.000  
G32  21162024.849 1 111207189.572 1     -2304.706          50.000  
G14  20373451.482 1 107063204.056 1      -373.423          47.000  
G27  21506957.929 1 113019827.951 1     -2437.331          46.000  
G11  22687111.748 1 119221580.057 1      1946.699          41.000  
G 1  24947018.792 2 131097468.965 2      2628.331          37.000  
R 3  23957030.710 4 128243868.330 2     -3746.870          35.000  
R 5  21054314.601 1 112547336.408 1       460.828          46.000  
G22  23985516.489 4 126044717.542 2      1305.780          34.000  
R 4  20714551.431 1 110925450.871 1     -2456.050          42.000  
G31  23821315.594 1 125181846.723 1      1986.430          42.000  
R18  20866070.331 4 111384417.254 2     -3260.102          36.000  
R20  23210636.609 4 124117668.727 2      3668.037          32.000  
G16  25605909.820 8 134559908.508 3     -2116.398          30.000  
R19  19626228.072 2 104987033.569 1       491.187          36.000  
> 2020  4 13 14 44 26.0010000  0 16                     
G 8  21511661.295 1 113044540.134 1      -470.734          46.000  
G10  23643838.067 1 124249216.904 1     -2283.296          42.000  
G32  21162463.775 1 111209494.204 1     -2304.681          50.000  
G14  20373522.583 1 107063577.333 1      -373.563          47.000  
G27  21507421.860 1 113022265.250 1     -2437.534          46.000  
G11  22686741.219 1 119219633.288 1      1946.666          41.000  
G 1  24946518.014 2 131094840.477 1      2628.292          37.000  
R 3  23957730.865 4 128247615.329 2     -3746.720          35.000  
R 5  21054228.737 1 112546875.687 1       460.645          46.000  
G22  23985267.230 4 126043411.471 2      1306.024          33.000  
R 4  20715009.840 1 110927906.887 1     -2456.012          42.000  
G31  23820937.151 1 125179860.029 1      1986.823          42.000  
R18  20866680.765 4 111387676.981 2     -3260.051          36.000  
R20  23209950.894 4 124114001.564 2      3667.103          32.000  
G16  25606311.035 8 134562023.748 2     -2114.820          30.000  
R19  19626136.066 2 104986542.274 1       490.803          36.000  
> 2020  4 13 14 44 27.0010000  0 16                     
G 8  21511750.980 1 113045011.405 1      -471.736          46.000  
G10  23644272.830 1 124251500.132 1     -2283.356          42.000  
G32  21162902.421 1 111211799.301 1     -2305.585          50.000  
G14  20373593.919 1 107063951.277 1      -374.502          47.000  
G27  21507885.914 1 113024703.047 1     -2438.333          46.000  
G11  22686370.411 1 119217686.796 1      1945.889          41.000  
G 1  24946017.839 2 131092211.873 1      2627.939          37.000  
R 3  23958430.793 4 128251362.158 2     -3747.341          35.000  
R 5  21054142.856 1 112546415.452 1       459.778          46.000  
G22  23985017.753 4 126042105.475 2      1305.170          33.000  
R 4  20715468.554 1 110930363.174 1     -2456.502          42.000  
G31  23820559.214 1 125177873.404 1      1986.323          42.000  
R18  20867291.532 4 111390937.390 2     -3260.622          37.000  
R20  23209265.057 4 124110334.520 3      3666.750          32.000  
G16  25606708.952 8 134564138.654 2     -2114.470          30.000  
R19  19626044.347 2 104986051.769 1       489.578          36.000  
> 2020  4 13 14 44 28.0010000  0 16                     
G 8  21511840.509 1 113045482.997 1      -471.724          46.000  
G10  23644707.550 1 124253782.987 1     -2282.662          42.000  
G32  21163341.477 1 111214104.537 1     -2305.157          50.000  
G14  20373665.064 1 107064325.560 1      -374.412          47.000  
G27  21508349.715 1 113027141.034 1     -2437.919          46.000  
G11  22685999.716 1 119215740.222 1      1946.866          41.000  
G 1  24945517.367 2 131089582.791 1      2629.266          37.000  
R 3  23959130.730 2 128255108.427 1     -3745.578          35.000  
R 5  21054056.861 1 112545955.390 1       460.095          46.000  
G22  23984768.249 4 126040799.190 2      1306.830          32.000  
R 4  20715927.023 1 110932819.362 1     -2456.006          42.000  
G31  23820181.164 1 125175886.490 1      1987.159          42.000  
R18  20867902.150 4 111394198.144 2     -3260.884          37.000  
R20  23208579.080 4 124106667.255 2      3667.581          32.000  
G16  25607109.505 4 134566252.996 3     -2113.656          30.000  
R19  19625952.838 2 104985561.711 1       489.919          36.000  
> 2020  4 13 14 44 29.0010000  0 16                     
G 8  21511930.648 1 113045955.053 1      -472.628          46.000  
G10  23645142.165 1 124256065.593 1     -2282.665          43.000  
G32  21163780.560 1 111216410.071 1     -2305.988          50.000  
G14  20373736.348 1 107064700.326 1      -375.379          46.000  
G27  21508813.341 1 113029579.360 1     -2438.690          46.000  
G11  22685629.038 1 119213793.767 1      1945.930          41.000  
G 1  24945017.077 2 131086953.422 1      2629.395          37.000  
R 3  23959830.685 2 128258854.371 2     -3745.905          35.000  
R 5  21053970.971 1 112545495.654 1       459.204          46.000  
G22  23984518.423 4 126039492.843 2      1305.371          32.000  
R 4  20716385.763 1 110935275.623 1     -2456.680          42.000  
G31  23819803.113 1 125173899.441 1      1986.631          43.000  
R18  20868512.942 4 111397459.349 2     -3261.690          37.000  
R20  23207893.243 4 124103000.030 2      3666.856          32.000  
G16  25607506.462 4 134568366.843 2     -2114.046          30.000  
R19  19625861.460 2 104985072.306 1       489.073          36.000  
> 2020  4 13 14 44 30.0010000  0 16                     
G 8  21512020.926 1 113046428.201 1      -473.865          46.000  
G10  23645576.658 1 124258348.603 1     -2283.288          43.000  
G32  21164219.624 1 111218716.513 1     -2307.037          50.000  
G14  20373807.536 1 107065076.191 1      -376.675          46.000  
G27  21509277.263 1 113032018.648 1     -2439.972          46.000  
G11  22685258.404 1 119211847.992 1      1945.238          41.000  
G 1  24944516.762 2 131084324.371 1      2628.955          36.000  
R 3  23960530.770 2 128262600.592 1     -3746.167          36.000  
R 5  21053885.317 1 112545036.869 1       458.215          46.000  
G22  23984269.156 4 126038186.948 2      1305.157          32.000  
R 4  20716844.529 1 110937732.575 1     -2457.505          42.000  
G31  23819425.150 1 125171912.875 1      1986.117          43.000  
R18  20869123.813 4 111400721.629 2     -3262.616          36.000  
R20  23207207.310 4 124099333.328 2      3666.833          32.000  
G16  25607909.318 4 134570480.776 2     -2114.008          29.000  
R19  19625770.300 2 104984584.191 1       487.103          37.000  
> 2020  4 13 14 44 31.0010000  0 16                     
G 8  21512111.266 1 113046902.281 1      -474.761          46.000  
G10  23646011.186 1 124260631.834 1     -2283.802          43.000  
G32  21164658.567 1 111221023.711 1     -2307.800          50.000  
G14  20373879.169 1 107065452.996 1      -377.566          46.000  
G27  21509741.570 1 113034458.729 1     -2440.879          46.000  
G11  22684887.919 1 119209902.778 1      1944.890          41.000  
G 1  24944016.290 2 131081695.517 1      2628.885          37.000  
R 3  23961230.742 2 128266346.929 1     -3746.558          36.000  
R 5  21053799.724 1 112544578.891 1       457.227          46.000  
G22  23984020.132 4 126036881.389 2      1305.341          32.000  
R 4  20717303.540 1 110940190.076 1     -2458.122          42.000  
G31  23819047.344 1 125169926.645 1      1985.713          43.000  
R18  20869734.650 4 111403984.846 2     -3264.147          37.000  
R20  23206521.621 4 124095667.141 2      3665.515          33.000  
G16  25608310.455 4 134572594.723 2     -2113.791          29.000  
R19  19625679.245 2 104984097.117 1       486.784          37.000  
> 2020  4 13 14 44 32.0010000  0 16                     
G 8  21512201.824 1 113047377.299 1      -475.433          46.000  
G10  23646445.792 1 124262915.296 1     -2283.447          43.000  
G32  21165097.475 1 111223331.679 1     -2308.386          50.000  
G14  20373950.636 1 107065830.766 1      -378.333          46.000  
G27  21510205.929 1 113036899.598 1     -2441.176          46.000  
G11  22684517.896 1 119207958.136 1      1944.398          41.000  
G 1  24943516.149 2 131079066.849 1      2628.618          37.000  
R 3  23961930.661 2 128270093.341 1     -3746.392          36.000  
R 5  21053714.191 1 112544121.707 1       456.830          46.000  
G22  23983771.100 2 126035576.214 1      1305.017          33.000  
R 4  20717762.559 1 110942648.134 1     -2458.290          42.000  
G31  23818669.835 1 125167940.756 1      1985.513          43.000  
R18  20870346.236 4 111407248.976 2     -3264.805          36.000  
R20  23205836.037 4 124092001.372 2      3664.894          33.000  
G16  25608710.911 4 134574708.705 3     -2114.238          28.000  
R19  19625588.478 2 104983611.212 1       485.241          37.000  
> 2020  4 13 14 44 33.0010000  0 16                     
G 8  21512292.234 1 113047853.222 1      -475.900          47.000  
G10  23646880.224 1 124265198.951 1     -2283.263          43.000  
G32  21165536.723 1 111225640.356 1     -2308.588          50.000  
G14  20374022.514 1 107066209.435 1      -378.747          46.000  
G27  21510670.218 1 113039341.229 1     -2441.592          46.000  
G11  22684148.099 1 119206014.021 1      1944.101          41.000  
G 1  24943016.166 2 131076438.298 1      2628.935          37.000  
R 3  23962630.947 2 128273839.795 1     -3745.628          36.000  
R 5  21053628.581 1 112543665.271 1       456.683          46.000  
G22  23983522.601 2 126034271.328 1      1305.151          33.000  
R 4  20718221.491 1 110945106.715 1     -2458.600          42.000  
G31  23818292.256 1 125165955.152 1      1986.046          43.000  
R18  20870958.206 4 111410514.016 2     -3265.024          36.000  
R20  23205150.470 4 124088335.985 2      3665.241          32.000  
G16  25609110.931 4 134576822.546 3     -2113.982          28.000  
R19  19625497.867 2 104983126.296 1       484.980          37.000  
> 2020  4 13 14 44 34.0010000  0 16                     
G 8  21512382.861 1 113048329.803 1      -476.784          46.000  
G10  23647315.023 1 124267482.543 1     -2283.643          43.000  
G32  21165975.963 1 111227949.513 1     -2309.406          50.000  
G14  20374094.365 1 107066588.768 1      -379.567          46.000  
G27  21511135.537 1 113041783.382 1     -2442.358          46.000  
G11  22683778.260 1 119204070.150 1      1943.624          41.000  
G 1  24942515.964 2 131073809.628 1      2629.282          37.000  
R 3  23963331.015 2 128277586.174 1     -3746.415          36.000  
R 5  21053543.136 1 112543209.345 1       455.719          46.000  
G22  23983274.563 2 126032966.523 1      1304.853          34.000  
R 4  20718680.598 1 110947565.504 1     -2458.842          42.000  
G31  23817914.337 1 125163969.620 1      1985.659          43.000  
R18  20871569.950 4 111413779.695 2     -3265.642          36.000  
R20  23204465.104 4 124084670.783 2      3664.456          32.000  
G16  25609505.786 4 134578936.034 3     -2113.318          27.000  
R19  19625407.571 2 104982642.225 1       484.317          37.000  
> 2020  4 13 14 44 35.0010000  0 16                     
G 8  21512473.812 1 113048807.279 1      -477.673          46.000  
G10  23647750.083 1 124269766.328 1     -2283.749          43.000  
G32  21166415.673 1 111230259.371 1     -2310.126          50.000  
G14  20374166.853 1 107066969.009 1      -380.599          46.000  
G27  21511600.594 1 113044226.273 1     -2443.003          46.000  
G11  22683408.446 1 119202126.796 1      1943.210          41.000  
G 1  24942016.094 2 131071181.093 1      2628.915          37.000  
R 3  23964031.327 2 128281332.580 1     -3746.504          37.000  
R 5  21053457.717 1 112542754.132 1       454.926          46.000  
G22  23983026.744 2 126031662.012 1      1304.792          34.000  
R 4  20719139.739 1 110950024.771 1     -2459.437          42.000  
G31  23817536.714 1 125161984.374 1      1985.185          43.000  
R18  20872182.243 4 111417046.286 2     -3267.399          36.000  
R20  23203779.590 4 124081005.899 3      3665.693          33.000  
G16  25609905.885 4 134581049.560 3     -2113.932          27.000  
R19  19625317.179 2 104982159.188 1       482.957          37.000  
> 2020  4 13 14 44 36.0010000  0 16                     
G 8  21512564.919 1 113049285.502 1      -478.304          47.000  
G10  23648184.768 1 124272050.130 1     -2283.577          43.000  
G32  21166855.253 1 111232569.787 1     -2310.382          50.000  
G14  20374239.411 1 107067349.988 1      -381.179          46.000  
G27  21512065.677 1 113046669.778 1     -2443.760          46.000  
G11  22683039.103 1 119200183.797 1      1943.043          41.000  
G 1  24941515.822 2 131068552.558 2      2628.488          37.000  
R 3  23964731.343 2 128285078.908 1     -3746.017          36.000  
R 5  21053372.185 1 112542299.492 1       454.608          45.000  
G22  23982778.898 2 126030357.679 1      1304.153          35.000  
R 4  20719599.099 1 110952484.398 1     -2459.352          42.000  
G31  23817159.144 1 125159999.253 1      1985.515          43.000  
R18  20872794.240 4 111420313.553 2     -3267.430          36.000  
R20  23203094.416 4 124077341.324 2      3664.922          33.000  
G16  25610308.967 4 134583162.848 3     -2113.465          27.000  
R19  19625227.031 2 104981677.066 1       481.922          37.000  
> 2020  4 13 14 44 37.0010000  0 16                     
G 8  21512656.097 1 113049764.431 1      -479.002          47.000  
G10  23648619.121 1 124274333.952 1     -2283.746          43.000  
G32  21167295.138 1 111234880.744 1     -2310.950          50.000  
G14  20374312.092 1 107067731.691 1      -381.925          46.000  
G27  21512530.865 1 113049113.846 1     -2444.215          46.000  
G11  22682669.656 1 119198241.135 1      1942.444          41.000  
G 1  24941015.612 4 131065923.954 2      2628.845          37.000  
R 3  23965431.105 2 128288825.097 1     -3745.935          37.000  
R 5  21053286.661 1 112541845.445 1       453.870          45.000  
G22  23982531.262 2 126029053.452 1      1304.365          35.000  
R 4  20720058.415 1 110954944.413 1     -2460.083          42.000  
G31  23816781.765 1 125158014.264 1      1985.065          43.000  
R18  20873406.472 4 111423581.571 2     -3268.646          36.000  
R20  23202409.111 4 124073676.979 2      3664.070          33.000  
G16  25610705.899 4 134585275.809 4     -2112.592          26.000  
R19  19625137.076 2 104981195.794 1       481.091          36.000  
> 2020  4 13 14 44 38.0010000  0 16                     
G 8  21512747.580 1 113050243.876 1      -479.296          46.000  
G10  23649053.762 1 124276617.582 1     -2283.187          43.000  
G32  21167735.014 1 111237192.040 1     -2311.102          50.000  
G14  20374384.850 1 107068113.935 1      -382.295          46.000  
G27  21512995.835 1 113051558.308 1     -2444.391          46.000  
G11  22682300.383 1 119196298.596 1      1943.074          42.000  
G 1  24940515.270 2 131063295.081 1      2629.733          37.000  
R 3  23966130.972 2 128292570.988 1     -3745.402          37.000  
R 5  21053201.120 1 112541391.768 1       453.796          45.000  
G22  23982283.783 2 126027749.173 1      1304.313          35.000  
R 4  20720517.661 1 110957404.530 1     -2459.874          42.000  
G31  23816403.872 1 125156029.175 1      1985.457          43.000  
R18  20874018.634 4 111426850.061 2     -3267.443          35.000  
R20  23201723.972 4 124070012.624 2      3664.893          33.000  
G16  25611107.280 4 134587388.395 3     -2111.957          26.000  
R19  19625047.181 2 104980715.202 1       480.842          36.000  
> 2020  4 13 14 44 39.0010000  0 16                     
G 8  21512838.731 1 113050723.579 1      -480.224          46.000  
G10  23649488.220 1 124278900.756 1     -2283.173          43.000  
G32  21168174.603 1 111239503.413 1     -2311.688          50.000  
G14  20374457.731 1 107068496.445 1      -382.920          46.000  
G27  21513461.154 1 113054002.871 1     -2444.921          46.000  
G11  22681931.041 1 119194355.951 1      1942.363          41.000  
G 1  24940014.850 2 131060665.724 1      2629.492          37.000  
R 3  23966830.508 2 128296316.294 1     -3745.542          37.000  
R 5  21053116.042 1 112540938.218 1       453.210          45.000  
G22  23982036.278 2 126026444.558 1      1304.498          36.000  
R 4  20720977.291 1 110959864.452 1     -2460.184          42.000  
G31  23816025.970 1 125154043.752 1      1985.375          43.000  
R18  20874630.483 4 111430118.897 3     -3269.254          35.000  
R20  23201038.728 4 124066348.013 2      3664.664          32.000  
G16  25611508.451 4 134589500.263 4     -2111.281          26.000  
R19  19624957.242 2 104980235.011 1       479.606          36.000  
> 2020  4 13 14 44 40.0010000  0 16                     
G 8  21512930.048 1 113051204.072 1      -481.135          46.000  
G10  23649922.836 1 124281184.023 1     -2283.639          43.000  
G32  21168614.636 1 111241815.408 1     -2312.561          50.000  
G14  20374530.865 1 107068879.757 1      -383.885          46.000  
G27  21513926.769 1 113056448.105 1     -2445.739          46.000  
G11  22681561.497 1 119192413.710 1      1941.903          41.000  
G 1  24939514.570 2 131058036.385 1      2629.571          37.000  
R 3  23967530.410 2 128300061.556 1     -3745.250          37.000  
R 5  21053031.268 1 112540485.293 1       452.612          46.000  
G22  23981788.860 2 126025140.140 1      1304.217          36.000  
R 4  20721436.764 1 110962324.767 1     -2460.688          42.000  
G31  23815648.155 1 125152058.528 1      1984.922          43.000  
R18  20875242.724 4 111433388.449 2     -3270.360          35.000  
R20  23200353.667 4 124062683.721 2      3663.992          32.000  
G16  25611911.639 4 134591611.978 3     -2111.428          26.000  
R19  19624867.548 2 104979755.798 1       478.744          36.000  
> 2020  4 13 14 44 41.0010000  0 16                     
G 8  21513021.731 1 113051685.585 1      -482.152          46.000  
G10  23650357.547 1 124283467.585 1     -2283.704          43.000  
G32  21169054.739 1 111244128.220 1     -2313.196          50.000  
G14  20374604.103 1 107069264.095 1      -384.963          46.000  
G27  21514392.167 1 113058894.202 1     -2446.554          46.000  
G11  22681191.998 1 119190472.115 1      1940.977          41.000  
G 1  24939014.473 2 131055407.303 1      2628.660          37.000  
R 3  23968230.303 2 128303807.037 1     -3745.662          37.000  
R 5  21052946.766 1 112540033.223 1       451.520          46.000  
G22  23981541.652 2 126023836.164 1      1303.938          36.000  
R 4  20721896.655 1 110964785.696 1     -2461.151          43.000  
G31  23815270.009 1 125150073.721 1      1984.520          43.000  
R18  20875855.322 4 111436658.988 2     -3270.740          35.000  
R20  23199668.633 4 124059019.949 2      3663.381          32.000  
G16  25612313.168 4 134593723.810 4     -2111.892          25.000  
R19  19624778.186 2 104979277.740 1       477.084          36.000  
> 2020  4 13 14 44 42.0010000  0 16                     
G 8  21513113.493 1 113052168.009 1      -482.705          46.000  
G10  23650792.092 1 124285751.360 1     -2283.710          43.000  
G32  21169494.982 1 111246441.770 1     -2313.629          50.000  
G14  20374677.560 1 107069649.352 1      -385.502          46.000  
G27  21514857.887 1 113061341.091 1     -2447.112          46.000  
G11  22680822.725 1 119188531.038 1      1940.887          42.000  
G 1  24938514.393 2 131052778.363 1      2629.029          38.000  
R 3  23968929.839 2 128307552.580 1     -3745.153          37.000  
R 5  21052862.787 1 112539581.918 1       451.129          46.000  
G22  23981294.443 1 126022532.531 1      1303.490          37.000  
R 4  20722356.425 1 110967247.174 1     -2461.531          43.000  
G31  23814892.256 1 125148089.231 1      1984.471          43.000  
R18  20876468.165 4 111439930.390 2     -3270.885          35.000  
R20  23198983.703 4 124055356.567 2      3663.352          32.000  
G16  25612714.986 4 134595835.488 5     -2111.395          24.000  
R19  19624688.910 2 104978800.732 1       477.063          36.000  
> 2020  4 13 14 44 43.0010000  0 16                     
G 8  21513205.465 1 113052651.112 1      -483.250          47.000  
G10  23651226.847 1 124288035.086 1     -2283.663          44.000  
G32  21169935.147 1 111248755.804 1     -2314.264          50.000  
G14  20374751.122 1 107070035.286 1      -386.359          46.000  
G27  21515323.459 1 113063788.486 1     -2447.646          46.000  
G11  22680453.461 1 119186590.245 1      1940.446          41.000  
G 1  24938014.166 2 131050149.325 1      2629.514          38.000  
R 3  23969629.732 1 128311297.995 1     -3745.484          38.000  
R 5  21052778.807 1 112539131.148 1       450.397          46.000  
G22  23981047.182 2 126021228.945 1      1303.162          37.000  
R 4  20722816.439 1 110969708.918 1     -2461.798          43.000  
G31  23814514.572 1 125146104.793 1      1984.423          43.000  
R18  20877081.008 4 111443202.525 2     -3272.304          35.000  
R20  23198298.904 4 124051693.407 2      3662.935          33.000  
G16  25613116.908 4 134597946.916 4     -2110.943          25.000  
R19  19624599.801 2 104978324.579 1       475.700          36.000  
> 2020  4 13 14 44 44.0010000  0 16                     
G 8  21513297.925 1 113053134.894 1      -484.231          47.000  
G10  23651661.645 1 124290318.773 1     -2283.706          44.000  
G32  21170375.538 1 111251070.312 1     -2314.801          50.000  
G14  20374824.639 1 107070421.879 1      -387.023          46.000  
G27  21515789.327 1 113066236.410 1     -2448.313          46.000  
G11  22680084.485 1 119184649.720 1      1940.317          41.000  
G 1  24937513.903 2 131047520.172 1      2629.376          38.000  
R 3  23970329.469 1 128315043.177 1     -3744.856          38.000  
R 5  21052694.863 1 112538680.894 1       450.012          46.000  
G22  23980799.660 1 126019925.422 1      1303.506          37.000  
R 4  20723276.339 1 110972170.906 1     -2462.095          43.000  
G31  23814137.054 1 125144120.419 1      1984.260          43.000  
R18  20877694.540 4 111446475.345 2     -3273.729          36.000  
R20  23197613.686 4 124048030.360 2      3663.188          33.000  
G16  25613523.402 4 134600058.085 4     -2111.069          24.000  
R19  19624510.805 2 104977849.213 1       475.008          36.000  
> 2020  4 13 14 44 45.0010000  0 16                     
G 8  21513390.681 1 113053619.756 1      -485.825          47.000  
G10  23652096.295 1 124292602.842 1     -2284.781          44.000  
G32  21170815.999 1 111253385.732 1     -2316.296          50.000  
G14  20374898.663 1 107070809.590 1      -388.805          46.000  
G27  21516255.492 1 113068685.292 1     -2449.843          46.000  
G11  22679715.500 1 119182709.927 1      1939.010          41.000  
G 1  24937013.875 2 131044891.383 1      2628.244          38.000  
R 3  23971029.371 1 128318788.672 1     -3745.950          38.000  
R 5  21052610.954 1 112538231.618 1       448.273          46.000  
G22  23980552.312 1 126018622.429 1      1302.241          38.000  
R 4  20723736.633 1 110974633.573 1     -2463.610          43.000  
G31  23813759.667 1 125142136.549 1      1983.206          42.000  
R18  20878307.889 4 111449749.180 2     -3275.045          36.000  
R20  23196929.140 4 124044367.999 2      3660.861          33.000  
G16  25613928.552 4 134602169.426 4     -2112.045          25.000  
R19  19624422.149 2 104977375.145 1       472.966          37.000  
> 2020  4 13 14 44 46.0010000  0 16                     
G 8  21513483.106 1 113054105.582 1      -486.055          47.000  
G10  23652531.137 1 124294887.163 1     -2284.233          43.000  
G32  21171256.721 1 111255701.939 1     -2316.388          50.000  
G14  20374972.425 1 107071198.258 1      -388.860          46.000  
G27  21516721.509 1 113071134.984 1     -2449.914          46.000  
G11  22679346.314 1 119180770.715 1      1939.226          41.000  
G 1  24936513.970 1 131042262.766 1      2628.885          38.000  
R 3  23971729.212 2 128322534.340 1     -3745.297          38.000  
R 5  21052527.149 1 112537783.122 1       448.376          46.000  
G22  23980305.156 1 126017319.794 1      1302.636          38.000  
R 4  20724196.742 1 110977096.799 1     -2463.119          43.000  
G31  23813381.913 1 125140153.032 1      1983.595          42.000  
R18  20878921.413 4 111453023.994 2     -3275.277          36.000  
R20  23196244.359 4 124040706.007 2      3662.456          33.000  
G16  25614332.036 4 134604280.705 5     -2111.323          25.000  
R19  19624333.598 2 104976902.213 1       472.501          37.000  
> 2020  4 13 14 44 47.0010000  0 16                     
G 8  21513575.653 1 113054592.275 1      -486.791          47.000  
G10  23652965.682 1 124297171.659 1     -2284.211          43.000  
G32  21171697.453 1 111258018.850 1     -2316.980          50.000  
G14  20375046.336 1 107071587.836 1      -389.697          46.000  
G27  21517187.761 1 113073585.433 1     -2450.714          46.000  
G11  22678977.452 1 119178832.004 1      1938.884          42.000  
G 1  24936013.995 2 131039634.277 1      2628.608          38.000  
R 3  23972429.236 1 128326280.062 1     -3745.469          38.000  
R 5  21052443.493 1 112537335.356 1       447.711          46.000  
G22  23980057.860 1 126016017.449 1      1302.628          38.000  
R 4  20724657.088 1 110979560.563 1     -2463.755          43.000  
G31  23813004.142 1 125138169.795 1      1983.487          42.000  
R18  20879535.224 4 111456299.635 2     -3275.335          36.000  
R20  23195559.621 4 124037044.511 2      3661.526          33.000  
G16  25614738.539 4 134606391.839 4     -2110.616          26.000  
R19  19624245.430 2 104976430.288 1       471.606          36.000  
> 2020  4 13 14 44 48.0010000  0 16                     
G 8  21513668.192 1 113055079.229 1      -486.599          47.000  
G10  23653400.559 1 124299455.696 1     -2283.414          43.000  
G32  21172138.071 1 111260335.828 1     -2316.687          49.000  
G14  20375120.386 1 107071977.665 1      -389.457          46.000  
G27  21517653.909 1 113076035.970 1     -2450.098          46.000  
G11  22678608.257 1 119176893.155 1      1939.290          42.000  
G 1  24935513.680 2 131037005.285 1      2629.473          38.000  
R 3  23973129.312 1 128330025.159 1     -3744.272          39.000  
R 5  21052359.496 1 112536887.690 1       447.882          46.000  
G22  23979810.355 1 126014714.773 1      1303.354          37.000  
R 4  20725117.023 1 110982024.163 1     -2463.097          43.000  
G31  23812626.589 1 125136186.210 1      1984.329          42.000  
R18  20880148.957 4 111459575.531 2     -3275.278          35.000  
R20  23194874.787 4 124033382.711 2      3662.259          33.000  
G16  25615145.330 4 134608502.345 4     -2109.329          26.000  
R19  19624157.211 2 104975958.770 1       472.099          36.000  
> 2020  4 13 14 44 49.0010000  0 16                     
G 8  21513760.451 1 113055566.011 1      -486.959          47.000  
G10  23653834.991 1 124301738.853 1     -2283.055          43.000  
G32  21172578.715 1 111262652.450 1     -2316.766          49.000  
G14  20375194.697 1 107072367.328 1      -389.821          46.000  
G27  21518120.205 1 113078486.212 1     -2450.499          46.000  
G11  22678239.246 1 119174953.747 1      1939.294          41.000  
G 1  24935013.374 2 131034375.317 1      2630.236          38.000  
R 3  23973829.328 1 128333769.250 1     -3743.976          39.000  
R 5  21052275.517 1 112536439.697 1       447.870          46.000  
G22  23979562.553 2 126013411.335 1      1303.645          37.000  
R 4  20725576.898 1 110984487.128 1     -2462.809          43.000  
G31  23812248.932 1 125134201.870 1      1984.363          42.000  
R18  20880762.952 4 111462851.251 2     -3275.877          35.000  
R20  23194189.936 4 124029720.208 2      3662.546          33.000  
G16  25615552.819 4 134610611.664 4     -2109.375          26.000  
R19  19624069.166 2 104975487.232 1       471.413          36.000  
> 2020  4 13 14 44 50.0010000  0 16                     
G 8  21513853.033 1 113056053.432 1      -487.786          47.000  
G10  23654269.310 1 124304021.926 1     -2282.858          43.000  
G32  21173019.246 1 111264969.514 1     -2317.255          49.000  
G14  20375268.887 1 107072757.619 1      -390.411          46.000  
G27  21518586.449 1 113080936.924 1     -2450.800          46.000  
G11  22677870.288 1 119173014.592 1      1939.091          41.000  
G 1  24934512.727 2 131031745.204 1      2630.838          38.000  
R 3  23974528.907 1 128337513.116 1     -3743.694          39.000  
R 5  21052191.878 1 112535992.195 1       447.321          46.000  
G22  23979314.428 1 126012107.964 1      1303.618          37.000  
R 4  20726036.824 1 110986950.289 1     -2463.110          43.000  
G31  23811871.370 1 125132217.525 1      1984.388          42.000  
R18  20881376.554 4 111466127.603 2     -3276.833          35.000  
R20  23193505.006 4 124026057.843 2      3662.265          33.000  
G16  25615959.016 4 134612720.656 4     -2108.435          26.000  
R19  19623981.147 2 104975016.461 1       470.419          36.000  
> 2020  4 13 14 44 51.0010000  0 16                     
G 8  21513945.912 1 113056541.811 1      -489.343          46.000  
G10  23654703.410 1 124306305.256 1     -2283.710          43.000  
G32  21173460.125 1 111267287.367 1     -2318.695          49.000  
G14  20375343.382 1 107073148.888 1      -391.996          46.000  
G27  21519052.570 1 113083388.474 1     -2452.524          46.000  
G11  22677501.608 1 119171076.014 1      1937.788          42.000  
G 1  24934012.447 2 131029115.341 1      2629.627          38.000  
R 3  23975228.600 1 128341257.136 1     -3744.355          39.000  
R 5  21052108.152 1 112535545.495 1       445.935          46.000  
G22  23979066.591 1 126010804.956 1      1302.039          37.000  
R 4  20726496.751 1 110989414.078 1     -2464.516          43.000  
G31  23811493.730 1 125130233.567 1      1983.385          42.000  
R18  20881990.540 4 111469404.900 2     -3278.621          35.000  
R20  23192820.364 4 124022395.957 2      3660.883          33.000  
G16  25616365.519 4 134614829.690 4     -2109.310          27.000  
R19  19623893.268 2 104974546.812 1       468.971          36.000  
> 2020  4 13 14 44 52.0010000  0 16                     
G 8  21514039.219 1 113057031.654 1      -490.301          46.000  
G10  23655138.147 1 124308589.340 1     -2284.332          43.000  
G32  21173901.337 1 111269606.490 1     -2319.574          49.000  
G14  20375417.955 1 107073541.634 1      -393.405          46.000  
G27  21519518.910 1 113085841.331 1     -2453.322          46.000  
G11  22677133.016 1 119169138.515 1      1937.047          42.000  
G 1  24933512.437 1 131026486.123 1      2629.227          38.000  
R 3  23975928.633 1 128345001.827 1     -3745.180          39.000  
R 5  21052024.775 1 112535100.096 1       444.904          46.000  
G22  23978818.598 2 126009502.787 1      1302.010          36.000  
R 4  20726957.027 1 110991878.946 1     -2465.294          42.000  
G31  23811116.439 1 125128250.453 1      1982.985          42.000  
R18  20882604.770 4 111472683.642 2     -3279.712          35.000  
R20  23192135.792 4 124018735.007 2      3660.760          33.000  
G16  25616771.734 4 134616939.184 3     -2109.447          27.000  
R19  19623805.781 2 104974078.812 1       467.110          36.000  
> 2020  4 13 14 44 53.0010000  0 16                     
G 8  21514132.534 1 113057522.129 1      -490.605          46.000  
G10  23655572.876 1 124310873.313 1     -2283.764          43.000  
G32  21174342.635 1 111271926.036 1     -2319.617          49.000  
G14  20375493.105 1 107073934.983 1      -393.594          46.000  
G27  21519985.642 1 113088294.658 1     -2453.602          46.000  
G11  22676764.336 1 119167201.234 1      1937.308          42.000  
G 1  24933011.947 2 131023856.771 1      2629.715          38.000  
R 3  23976628.325 1 128348746.272 1     -3744.126          39.000  
R 5  21051941.424 1 112534655.141 1       444.647          46.000  
G22  23978570.778 2 126008200.636 1      1302.373          36.000  
R 4  20727417.529 1 110994344.029 1     -2465.144          42.000  
G31  23810739.008 1 125126267.363 1      1983.129          42.000  
R18  20883219.366 4 111475962.978 2     -3279.165          36.000  
R20  23191451.063 4 124015074.213 2      3660.696          33.000  
G16  25617173.586 4 134619048.345 3     -2108.793          27.000  
R19  19623718.539 2 104973611.553 1       467.171          36.000  
> 2020  4 13 14 44 54.0010000  0 16                     
G 8  21514225.561 1 113058012.791 1      -490.377          46.000  
G10  23656007.229 1 124313156.784 1     -2282.778          43.000  
G32  21174784.039 1 111274245.598 1     -2319.141          49.000  
G14  20375568.027 1 107074328.548 1      -393.462          46.000  
G27  21520452.496 1 113090748.043 1     -2453.038          46.000  
G11  22676395.701 1 119165263.783 1      1937.772          42.000  
G 1  24932511.318 2 131021226.857 1      2630.209          38.000  
R 3  23977327.922 1 128352490.064 1     -3742.767          39.000  
R 5  21051858.274 1 112534210.238 1       445.258          46.000  
G22  23978322.715 2 126006898.136 1      1303.047          36.000  
R 4  20727878.006 1 110996808.915 1     -2464.489          42.000  
G31  23810361.691 1 125124283.871 1      1983.894          42.000  
R18  20883833.841 4 111479242.538 2     -3279.382          36.000  
R20  23190766.334 4 124011413.119 2      3661.230          33.000  
G16  25617577.585 4 134621156.722 3     -2107.712          27.000  
R19  19623631.043 2 104973144.652 1       467.242          36.000  
> 2020  4 13 14 44 55.0010000  0 16                     
G 8  21514318.902 1 113058503.389 1      -491.044          46.000  
G10  23656441.600 1 124315439.495 1     -2283.040          43.000  
G32  21175225.311 1 111276564.928 1     -2319.843          49.000  
G14  20375642.828 1 107074722.049 1      -393.878          46.000  
G27  21520919.368 1 113093201.228 1     -2453.670          46.000  
G11  22676027.108 1 119163325.865 1      1937.738          42.000  
G 1  24932010.427 2 131018596.110 1      2630.808          38.000  
R 3  23978027.283 1 128356232.972 1     -3743.083          39.000  
R 5  21051774.905 1 112533765.129 1       444.690          46.000  
G22  23978074.320 2 126005594.939 1      1303.019          36.000  
R 4  20728338.264 1 110999273.284 1     -2464.595          42.000  
G31  23809984.242 1 125122299.705 1      1984.006          42.000  
R18  20884447.914 4 111482522.012 2     -3280.729          35.000  
R20  23190081.518 4 124007751.432 2      3662.086          33.000  
G16  25617979.437 4 134623264.099 3     -2107.465          27.000  
R19  19623543.696 2 104972677.873 1       465.510          36.000  
> 2020  4 13 14 44 56.0010000  0 16                     
G 8  21514412.322 1 113058994.377 1      -491.257          46.000  
G10  23656876.110 1 124317721.846 1     -2282.102          43.000  
G32  21175667.124 1 111278884.440 1     -2319.556          49.000  
G14  20375717.698 1 107075115.946 1      -394.021          46.000  
G27  21521386.371 1 113095654.644 1     -2453.472          46.000  
G11  22675658.080 1 119161387.973 1      1938.052          42.000  
G 1  24931509.876 2 131015965.007 1      2631.226          38.000  
R 3  23978726.679 1 128359975.386 1     -3742.024          38.000  
R 5  21051691.720 1 112533320.274 1       444.824          46.000  
G22  23977825.837 2 126004291.536 1      1303.653          36.000  
R 4  20728798.347 1 111001737.626 1     -2464.366          42.000  
G31  23809606.131 1 125120315.335 1      1984.525          42.000  
R18  20885062.083 4 111485801.778 2     -3279.928          35.000  
R20  23189396.780 4 124004089.662 2      3661.776          33.000  
G16  25618380.103 4 134625370.875 3     -2106.237          28.000  
R19  19623456.480 2 104972211.544 1       466.576          36.000  
> 2020  4 13 14 44 57.0010000  0 17                     
G 8  21514505.698 1 113059485.628 1      -491.253          46.000  
G10  23657310.132 1 124320003.785 1     -2281.772          43.000  
G32  21176108.772 1 111281204.052 1     -2319.672          50.000  
G14  20375793.092 1 107075510.136 1      -394.375          46.000  
G27  21521853.391 1 113098108.196 1     -2453.564          46.000  
G11  22675288.912 1 119159449.980 1      1938.012          42.000  
G 1  24931009.107 2 131013333.396 1      2631.654          38.000  
R 3  23979425.491 2 128363717.265 1     -3741.505          38.000  
R 5  21051608.587 1 112532875.540 1       444.745          46.000  
G22  23977577.119 2 126002987.823 1      1304.511          35.000  
R 4  20729258.492 1 111004201.834 1     -2464.094          42.000  
G31  23809228.316 1 125118330.635 1      1984.893          42.000  
R18  20885675.886 4 111489081.844 2     -3280.021          35.000  
R20  23188712.138 4 124000427.694 2      3661.878          33.000  
G16  25618781.711 4 134627477.010 3     -2105.646          28.000  
R19  19623369.377 2 104971745.698 1       465.811          36.000  
R26  22081088.938 1 117745987.21411      3239.515          40.000  
> 2020  4 13 14 44 58.0010000  0 16                     
G 8  21514599.056 1 113059977.024 1      -491.954          46.000  
G10  23657744.398 1 124322285.141 1     -2281.460          43.000  
G32  21176550.498 1 111283523.629 1     -2319.995          50.000  
G14  20375868.232 1 107075904.470 1      -394.964          46.000  
G27  21522320.228 1 113100561.754 1     -2454.029          46.000  
G11  22674919.909 1 119157511.732 1      1937.819          42.000  
G 1  24930508.146 2 131010701.161 1      2632.119          38.000  
R 3  23980124.485 2 128367458.470 1     -3741.633          38.000  
R 5  21051525.411 1 112532430.769 1       444.385          46.000  
G22  23977328.340 2 126001683.697 1      1303.767          35.000  
R 4  20729718.480 1 111006665.779 1     -2464.453          42.000  
G31  23808850.537 1 125116345.480 1      1984.889          42.000  
R18  20886289.915 4 111492362.011 2     -3280.664          35.000  
R20  23188027.383 4 123996765.363 2      3661.312          33.000  
G16  25619184.593 2 134629582.282 2     -2105.317          28.000  
R19  19623282.414 2 104971280.157 1       465.064          36.000  
> 2020  4 13 14 44 59.0010000  0 16                     
G 8  21514693.104 1 113060469.654 1      -493.829          46.000  
G10  23658178.804 1 124324567.050 1     -2282.945          43.000  
G32  21176992.180 1 111285844.257 1     -2321.783          50.000  
G14  20375943.460 1 107076300.055 1      -396.926          46.000  
G27  21522787.658 1 113103016.409 1     -2455.817          46.000  
G11  22674551.151 1 119155574.346 1      1936.386          42.000  
G 1  24930007.028 2 131008069.399 1      2631.056          38.000  
R 3  23980823.611 2 128371200.085 1     -3742.589          37.000  
R 5  21051442.496 1 112531987.090 1       442.426          46.000  
G22  23977079.090 2 126000380.175 1      1302.561          34.000  
R 4  20730178.782 1 111009130.579 1     -2465.656          42.000  
G31  23808472.731 1 125114360.967 1      1983.572          42.000  
R18  20886904.268 4 111495643.405 3     -3282.863          35.000  
R20  23187342.663 4 123993103.719 2      3660.634          33.000  
G16  25619585.913 2 134631687.843 2     -2106.324          29.000  
R19  19623195.564 2 104970815.997 1       463.061          36.000  
> 2020  4 13 14 45  0.0010000  0 16                     
G 8  21514787.362 1 113060964.259 1      -495.476          46.000  
G10  23658613.376 1 124326850.217 1     -2283.577          43.000  
G32  21177434.456 1 111288166.689 1     -2323.181          50.000  
G14  20376018.985 1 107076697.626 1      -398.382          46.000  
G27  21523255.115 1 113105472.901 1     -2457.259          46.000  
G11  22674182.891 1 119153638.577 1      1934.919          42.000  
G 1  24929505.972 2 131005438.855 1      2630.182          37.000  
R 3  23981522.693 2 128374942.876 1     -3743.642          37.000  
R 5  21051359.913 1 112531545.257 1       441.101          46.000  
G22  23976830.381 4 125999078.094 2      1300.914          34.000  
R 4  20730639.284 1 111011597.002 1     -2467.011          42.000  
G31  23808095.204 1 125112377.835 1      1982.548          42.000  
R18  20887519.179 4 111498926.805 2     -3284.189          35.000  
R20  23186657.986 4 123989443.603 2      3659.892          33.000  
G16  25619985.837 2 134633794.452 2     -2107.335          29.000  
R19  19623109.186 2 104970354.015 1       461.096          36.000  
> 2020  4 13 14 45  1.0010000  0 16                     
G 8  21514881.602 1 113061459.858 1      -495.623          46.000  
G10  23659047.781 1 124329133.668 1     -2283.260          43.000  
G32  21177876.636 1 111290489.913 1     -2323.212          50.000  
G14  20376094.963 1 107077096.195 1      -398.672          46.000  
G27  21523722.920 1 113107930.238 1     -2457.477          46.000  
G11  22673814.848 1 119151703.383 1      1935.335          42.000  
G 1  24929005.386 2 131002808.547 1      2630.081          37.000  
R 3  23982222.036 2 128378685.801 1     -3742.712          37.000  
R 5  21051277.426 1 112531104.251 1       440.912          46.000  
G22  23976581.768 2 125997776.343 2      1301.907          34.000  
R 4  20731099.961 1 111014063.987 1     -2467.172          42.000  
G31  23807718.026 1 125110395.088 1      1982.905          42.000  
R18  20888134.630 4 111502205.71332     -3284.370          35.000  
R20  23185973.658 4 123985783.996 2      3660.084          32.000  
G16  25620383.222 2 134635901.007 2     -2106.388          29.000  
R19  19623023.095 2 104969893.211 1       460.105          36.000  
> 2020  4 13 14 45  2.0010000  0 16                     
G 8  21514975.868 1 113061955.519 1      -495.695          46.000  
G10  23659482.283 1 124331416.478 1     -2282.502          43.000  
G32  21178318.633 1 111292813.030 1     -2322.998          50.000  
G14  20376170.732 1 107077494.848 1      -398.815          46.000  
G27  21524190.211 1 113110387.502 1     -2457.276          46.000  
G11  22673446.736 1 119149767.902 1      1935.453          42.000  
G 1  24928504.582 2 131000177.518 1      2631.311          37.000  
R 3  23982921.397 2 128382427.916 1     -3741.971          36.000  
R 5  21051194.921 1 112530663.165 1       440.973          46.000  
G22  23976333.032 4 125996474.113 2      1302.603          33.000  
R 4  20731560.778 1 111016530.589 1     -2466.277          43.000  
G31  23807340.761 1 125108411.799 1      1983.521          42.000  
R18  20888749.838 4 111505490.12522     -3284.051          35.000  
R20  23185289.348 4 123982123.921 2      3660.296          33.000  
G16  25620779.351 2 134638006.731 2     -2105.175          29.000  
R19  19622937.074 2 104969432.570 1       460.620          36.000  
> 2020  4 13 14 45  3.0010000  0 16                     
G 8  21515070.430 1 113062451.397 1      -496.131          46.000  
G10  23659916.636 1 124333698.801 1     -2282.137          43.000  
G32  21178760.664 1 111295136.178 1     -2323.181          50.000  
G14  20376246.535 1 107077893.713 1      -398.912          46.000  
G27  21524657.685 1 113112844.843 1     -2457.425          46.000  
G11  22673078.563 1 119147832.242 1      1935.756          42.000  
G 1  24928003.377 2 130997545.948 1      2631.922          37.000  
R 3  23983620.575 2 128386169.426 1     -3741.626          36.000  
R 5  21051112.224 1 112530222.122 1       441.028          46.000  
G22  23976084.419 4 125995171.487 2      1302.899          33.000  
R 4  20732021.403 1 111018997.048 1     -2466.568          43.000  
G31  23806963.540 1 125106428.148 1      1983.726          42.000  
R18  20889365.281 4 111508774.30112     -3284.747          35.000  
R20  23184604.942 4 123978463.557 2      3661.197          32.000  
G16  25621177.041 4 134640111.653 3     -2104.373          30.000  
R19  19622851.097 2 104968972.306 1       460.494          36.000  
> 2020  4 13 14 45  4.0010000  0 16                     
G 8  21515164.452 1 113062947.531 1      -496.180          46.000  
G10  23660351.077 1 124335980.657 1     -2281.413          43.000  
G32  21179202.949 1 111297459.404 1     -2323.065          49.000  
G14  20376322.496 1 107078292.852 1      -399.141          46.000  
G27  21525125.481 1 113115302.297 1     -2457.352          46.000  
G11  22672710.337 1 119145896.466 1      1935.885          42.000  
G 1  24927502.320 2 130994913.888 1      2632.579          37.000  
R 3  23984319.238 2 128389910.392 1     -3740.253          36.000  
R 5  21051029.598 1 112529781.175 1       441.199          46.000  
G22  23975835.692 2 125993868.530 1      1303.506          33.000  
R 4  20732482.088 1 111021463.338 1     -2466.014          43.000  
G31  23806585.882 1 125104444.142 1      1984.432          43.000  
R18  20889980.488 4 111512059.171 2     -3284.713          35.000  
R20  23183920.134 4 123974802.989 2      3661.035          32.000  
G16  25621569.889 8 134642215.903 3     -2103.456          30.000  
R19  19622765.006 2 104968512.489 1       459.587          36.000  
> 2020  4 13 14 45  5.0010000  0 16                     
G 8  21515258.753 1 113063443.868 1      -497.029          46.000  
G10  23660785.221 1 124338262.020 1     -2281.674          43.000  
G32  21179644.980 1 111299782.638 1     -2323.663          49.000  
G14  20376398.527 1 107078692.213 1      -400.147          46.000  
G27  21525593.671 1 113117759.825 1     -2458.197          46.000  
G11  22672342.216 1 119143960.513 1      1935.437          42.000  
G 1  24927000.792 2 130992281.239 1      2632.426          37.000  
R 3  23985017.832 2 128393650.727 1     -3740.631          35.000  
R 5  21050946.910 1 112529340.274 1       440.405          46.000  
G22  23975587.332 2 125992565.206 1      1303.295          33.000  
R 4  20732942.739 1 111023929.435 1     -2466.500          43.000  
G31  23806208.766 1 125102459.746 1      1984.074          43.000  
R18  20890595.957 4 111515344.179 2     -3284.932          35.000  
R20  23183235.675 4 123971142.127 2      3660.150          32.000  
G16  25621971.061 8 134644319.411 3     -2103.739          30.000  
R19  19622679.317 2 104968052.991 1       458.468          36.000  
> 2020  4 13 14 45  6.0010000  0 16                     
G 8  21515352.932 1 113063940.384 1      -496.536          46.000  
G10  23661219.356 1 124340542.850 1     -2280.451          43.000  
G32  21180087.160 1 111302105.885 1     -2323.151          50.000  
G14  20376474.217 1 107079091.767 1      -399.678          46.000  
G27  21526061.590 1 113120217.374 1     -2457.499          46.000  
G11  22671974.138 1 119142024.365 1      1936.353          42.000  
G 1  24926499.186 2 130989648.020 1      2633.854          37.000  
R 3  23985716.425 2 128397390.403 1     -3739.520          35.000  
R 5  21050864.187 1 112528899.414 1       440.912          46.000  
G22  23975338.701 2 125991261.472 1      1304.187          34.000  
R 4  20733403.442 1 111026395.302 1     -2465.718          43.000  
G31  23805831.186 1 125100474.949 1      1984.984          43.000  
R18  20891211.505 4 111518629.377 2     -3284.846          35.000  
R20  23182551.103 4 123967480.932 3      3661.933          32.000  
G16  25622369.031 8 134646422.168 3     -2102.712          30.000  
R19  19622593.541 2 104967593.833 1       459.084          36.000  
